stop_id,stop_code,stop_name,stop_desc,stop_lat,stop_lon,zone_id,stop_url,location_type,parent_station
804087,,BRADDOCK AV - CROSS ISLAND PY,,40.725513,-73.724922,,,0,
500035,,AMBOY LA - SPRINGFIELD BL,,40.717834,-73.735626,,,0,
500048,,SPRINGFIELD BL - JAMAICA AV,,40.718922,-73.735222,,,0,
500049,,SPRINGFIELD BL - 94 DR,,40.720181,-73.735733,,,0,
500050,,SPRINGFIELD BL - 94 AV,,40.721428,-73.736313,,,0,
500051,,SPRINGFIELD BL - 93 AV,,40.722771,-73.737061,,,0,
500052,,SPRINGFIELD BL - 92 AV,,40.724895,-73.739319,,,0,
500053,,SPRINGFIELD BL - 91 AV,,40.725979,-73.740517,,,0,
500054,,SPRINGFIELD BL - 90 AV,,40.7271,-73.741669,,,0,
500055,,SPRINGFIELD BL - 89 AV,,40.729321,-73.744041,,,0,
500066,,HILLSIDE AV - SPRINGFIELD BL,,40.729767,-73.745209,,,0,
503272,,HILLSIDE AV - 218 ST,,40.728439,-73.747177,,,0,
500069,,HILLSIDE AV - 215 PL,,40.727123,-73.749626,,,0,
500070,,HILLSIDE AV - 214 ST,,40.72591,-73.752159,,,0,
500071,,HILLSIDE AV - 212 ST,,40.724552,-73.754524,,,0,
500072,,HILLSIDE AV - 211 ST,,40.72348,-73.756172,,,0,
500073,,HILLSIDE AV - 209 ST,,40.72242,-73.757629,,,0,
500074,,HILLSIDE AV - FRANCIS LEWIS BL,,40.720917,-73.759933,,,0,
502115,,HILLSIDE AV - 202 ST,,40.719948,-73.76236,,,0,
505201,,HILLSIDE AV - 198 ST,,40.718857,-73.764626,,,0,
504525,,HILLSIDE AV - 197 ST,,40.718204,-73.765877,,,0,
500078,,HILLSIDE AV - 193 ST,,40.716595,-73.76963,,,0,
500079,,HILLSIDE AV - 191 ST,,40.715935,-73.77153,,,0,
500080,,HILLSIDE AV - 188 ST,,40.71524,-73.773506,,,0,
500081,,HILLSIDE AV - 187 ST,,40.714806,-73.775284,,,0,
500082,,HILLSIDE AV - DALNY RD,,40.71405,-73.778427,,,0,
501414,,HILLSIDE AV - 179 ST SUBWAY,,40.712543,-73.784874,,,0,
500197,,HILLSIDE AV - EDGERTON BL,,40.712273,-73.785812,,,0,
500084,,HILLSIDE AV - 175 ST,,40.711895,-73.787643,,,0,
503195,,HILLSIDE AV - 172 ST,,40.711842,-73.790161,,,0,
501419,,HILLSIDE AV - 169 ST,,40.710705,-73.793228,,,0,
804052,,165 ST - 165 ST TERM,,40.707615,-73.79554,,,0,
504472,,165 ST - TERMINAL,,40.707813,-73.795418,,,0,
500002,,165 ST - HILLSIDE AV,,40.709152,-73.797134,,,0,
503984,,HILLSIDE AV - 168 PL,,40.710205,-73.793961,,,0,
500004,,HILLSIDE AV - 171 ST,,40.711388,-73.790855,,,0,
500005,,HILLSIDE AV - 173 ST,,40.711964,-73.788834,,,0,
503571,,HILLSIDE AV - 175 ST,,40.711723,-73.787247,,,0,
500095,,HILLSIDE AV - 180 ST,,40.712448,-73.784294,,,0,
500008,,HILLSIDE AV - 182 PL,,40.713528,-73.779831,,,0,
500009,,HILLSIDE AV - 184 ST,,40.714062,-73.777496,,,0,
500010,,HILLSIDE AV - 187 ST,,40.714687,-73.774857,,,0,
500011,,HILLSIDE AV - 189 ST,,40.715279,-73.772781,,,0,
500012,,HILLSIDE AV - 191 ST,,40.716011,-73.770683,,,0,
500013,,HILLSIDE AV - 193 ST,,40.716713,-73.768654,,,0,
500014,,HILLSIDE AV - 195 PL,,40.717342,-73.76696,,,0,
500015,,HILLSIDE AV - 197 ST,,40.718449,-73.765015,,,0,
503978,,HILLSIDE AV - 199 ST,,40.719154,-73.763634,,,0,
500017,,HILLSIDE AV - 202 ST,,40.719856,-73.762024,,,0,
500018,,HILLSIDE AV - 205 ST,,40.720711,-73.759872,,,0,
500019,,HILLSIDE AV - 207 ST,,40.721725,-73.758301,,,0,
503965,,HILLSIDE AV - 210 ST,,40.723209,-73.75618,,,0,
500022,,HILLSIDE AV - 212 ST,,40.724823,-73.753662,,,0,
500023,,HILLSIDE AV - 214 ST,,40.726089,-73.751282,,,0,
500024,,HILLSIDE AV - 215 PL,,40.727253,-73.748962,,,0,
500025,,HILLSIDE AV - 218 ST,,40.728344,-73.746902,,,0,
500026,,HILLSIDE AV - SPRINGFIELD BL,,40.729588,-73.744667,,,0,
500036,,BRADDOCK AV - 89 AV,,40.729877,-73.742722,,,0,
500037,,BRADDOCK AV - 221 PL,,40.729286,-73.740067,,,0,
500038,,BRADDOCK AV - 90 AV,,40.728634,-73.737274,,,0,
500039,,BRADDOCK AV - WINCHESTER BL,,40.72826,-73.735611,,,0,
500040,,BRADDOCK AV - 222 ST,,40.728149,-73.735123,,,0,
500041,,BRADDOCK AV - 224 ST,,40.727795,-73.733513,,,0,
500042,,BRADDOCK AV - 92 AV,,40.727425,-73.73185,,,0,
500043,,BRADDOCK AV - 92 RD,,40.726963,-73.730476,,,0,
500044,,BRADDOCK AV - 240 ST,,40.726437,-73.72863,,,0,
500045,,BRADDOCK AV - 242 ST,,40.725964,-73.726036,,,0,
503753,,BRADDOCK AV - CROSS ISLAND PY,,40.725555,-73.724983,,,0,
500056,,BRADDOCK AV - CROSS ISLAND PY,,40.72583,-73.72506,,,0,
500057,,BRADDOCK AV - 242 ST,,40.726387,-73.726753,,,0,
500058,,BRADDOCK AV - 240 ST,,40.72665,-73.7286,,,0,
500059,,BRADDOCK AV - 238 ST,,40.727016,-73.729881,,,0,
500061,,BRADDOCK AV - LYMAN ST,,40.727909,-73.73307,,,0,
500062,,BRADDOCK AV - RANSOM ST,,40.728531,-73.735794,,,0,
500063,,BRADDOCK AV - WINCHESTER BL,,40.728935,-73.73761,,,0,
500064,,BRADDOCK AV - BILLINGS ST,,40.729229,-73.738907,,,0,
500065,,BRADDOCK AV - 221 PL,,40.73,-73.742203,,,0,
500027,,SPRINGFIELD BL - 89 AV,,40.729076,-73.744034,,,0,
500028,,SPRINGFIELD BL - 90 AV,,40.726543,-73.741341,,,0,
500029,,SPRINGFIELD BL - 91 AV,,40.725407,-73.740143,,,0,
500030,,SPRINGFIELD BL - 92 AV,,40.724293,-73.738953,,,0,
500031,,SPRINGFIELD BL - 93 AV,,40.722126,-73.73687,,,0,
500032,,SPRINGFIELD BL - 94 AV,,40.720909,-73.73629,,,0,
500033,,SPRINGFIELD BL - 94 DR,,40.719517,-73.735703,,,0,
500034,,SPRINGFIELD BL - JAMAICA AV,,40.718636,-73.735428,,,0,
503212,,AMBOY LA - SPRINGFIELD BL,,40.717819,-73.735756,,,0,
504055,,HILLSIDE AV - 231 ST,,40.732925,-73.739456,,,0,
500123,,HEMPSTEAD AV - 225 ST,,40.71172,-73.729446,,,0,
500124,,HEMPSTEAD AV - 224 ST,,40.711853,-73.730034,,,0,
500125,,HEMPSTEAD AV - 221 ST,,40.712719,-73.733269,,,0,
500126,,SPRINGFIELD BL - HEMPSTEAD AV,,40.712963,-73.736069,,,0,
500127,,SPRINGFIELD BL - HOLLIS AV,,40.712055,-73.736557,,,0,
500128,,HOLLIS AV - 217 LA,,40.711182,-73.739304,,,0,
503839,,HOLLIS AV - 217 ST,,40.710724,-73.740707,,,0,
500130,,HOLLIS AV - 215 ST,,40.710064,-73.743225,,,0,
500131,,HOLLIS AV - 212 PL,,40.709675,-73.745094,,,0,
500132,,HOLLIS AV - 211 ST,,40.708969,-73.747223,,,0,
500133,,HOLLIS AV - 207 ST,,40.707653,-73.750221,,,0,
500134,,HOLLIS AV - FRANCIS LEWIS BL,,40.707268,-73.751717,,,0,
500135,,HOLLIS AV - 205 ST,,40.706894,-73.753448,,,0,
500136,,HOLLIS AV - 203 ST,,40.706497,-73.755264,,,0,
500137,,HOLLIS AV - 201 ST,,40.706238,-73.757034,,,0,
500138,,HOLLIS AV - 199 ST,,40.706409,-73.759132,,,0,
500139,,HOLLIS AV - 197 ST,,40.706573,-73.760651,,,0,
500140,,HOLLIS AV - 195 ST,,40.706818,-73.762718,,,0,
500141,,HOLLIS AV - 104 AV,,40.707291,-73.764488,,,0,
500142,,HOLLIS AV - 100 AV,,40.708847,-73.766159,,,0,
500143,,HOLLIS AV - 99 AV,,40.709625,-73.76767,,,0,
505068,,WOODHULL AV - 190 ST,,40.710495,-73.76947,,,0,
500145,,188 ST - JAMAICA AV,,40.710739,-73.770477,,,0,
500146,,188 ST - 90 AV,,40.712704,-73.771889,,,0,
500147,,188 ST - 89 AV,,40.713833,-73.772644,,,0,
501318,,165 ST - TERMINAL,,40.707832,-73.795425,,,0,
500003,,HILLSIDE AV - 169 ST,,40.710552,-73.79319,,,0,
500099,,187 PL - 90 AV,,40.712532,-73.772919,,,0,
500100,,187 PL - JAMAICA AV,,40.710442,-73.771843,,,0,
500101,,HOLLIS AV - 190 ST,,40.709793,-73.769104,,,0,
500102,,HOLLIS AV - 191 ST,,40.709339,-73.767288,,,0,
500103,,HOLLIS AV - 102 AV,,40.708504,-73.765945,,,0,
500104,,HOLLIS AV - 104 AV,,40.70734,-73.76474,,,0,
500105,,HOLLIS AV - 109 AV,,40.706604,-73.762199,,,0,
503985,,HOLLIS AV - 198 ST,,40.706264,-73.759094,,,0,
503986,,HOLLIS AV - 201 ST,,40.706207,-73.756035,,,0,
500109,,HOLLIS AV - 204 ST,,40.706787,-73.753311,,,0,
500110,,HOLLIS AV - FRANCIS LEWIS BL,,40.707333,-73.75074,,,0,
500111,,HOLLIS AV - 208 ST,,40.707783,-73.749588,,,0,
500112,,HOLLIS AV - 209 PL,,40.708385,-73.748108,,,0,
500113,,HOLLIS AV - 212 ST,,40.709396,-73.745926,,,0,
500114,,HOLLIS AV - 214 ST,,40.709782,-73.744049,,,0,
500115,,HOLLIS AV - 216 ST,,40.710178,-73.742233,,,0,
505072,,HOLLIS AV - 217 LN,,40.710678,-73.740532,,,0,
500116,,HOLLIS AV - 217 PL,,40.711033,-73.739464,,,0,
500118,,HOLLIS AV - SPRINGFIELD BL,,40.71188,-73.736641,,,0,
505131,,HEMPSTEAD AV - SPRINGFIELD BL,,40.713055,-73.735397,,,0,
500120,,HEMPSTEAD AV - 220 ST,,40.712639,-73.733704,,,0,
500121,,HEMPSTEAD AV - 223 ST,,40.711941,-73.730865,,,0,
904002,,HEMPSTEAD AV - CROSS ISLAND PKY,,40.711315,-73.728836,,,0,
500122,,HEMPSTEAD AV - 225 ST,,40.711674,-73.72934,,,0,
500119,,SPRINGFIELD BL - HEMPSTEAD AV,,40.713165,-73.735764,,,0,
550376,,JFK AIRPORT TERM. 5,,40.647022,-73.779678,,,0,
504015,,148 ST - S CARGO RD,,40.654606,-73.79097,,,0,
504016,,148 ST - 150 AV,,40.661076,-73.792633,,,0,
503696,,N BOUNDRY R - KOREAN AIRLINE,,40.661598,-73.789787,,,0,
503697,,N BOUNDRY R - FEDERAL EXPRESS,,40.662903,-73.784882,,,0,
503698,,N BOUNDRY R - N HANGER RD,,40.66037,-73.778687,,,0,
500157,,FARMERS BL - ROCKAWAY BL,,40.65984,-73.773247,,,0,
500158,,FARMERS BL - 147 AV,,40.661541,-73.770569,,,0,
500159,,FARMERS BL - 176 ST,,40.662369,-73.769806,,,0,
503779,,FARMERS BL - 145 DR,,40.664368,-73.768265,,,0,
500161,,FARMERS BL - 145 RD,,40.665916,-73.767387,,,0,
500163,,FARMERS BL - 144 AV,,40.668427,-73.766182,,,0,
500164,,FARMERS BL - 142 AV,,40.670555,-73.764999,,,0,
500165,,FARMERS BL - 140 AV,,40.671181,-73.764633,,,0,
500166,,FARMERS BL - 182 ST,,40.673157,-73.763855,,,0,
500167,,FARMERS BL - WESTGATE ST,,40.674652,-73.763573,,,0,
500168,,FARMERS BL - 134 AV,,40.67625,-73.763367,,,0,
500169,,FARMERS BL - BENNETT CT,,40.678501,-73.762062,,,0,
500170,,FARMERS BL - MERRICK BL,,40.680279,-73.761322,,,0,
500171,,FARMERS BL - 122 AV,,40.683712,-73.760368,,,0,
503756,,FARMERS BL - 121 AV,,40.685421,-73.760727,,,0,
503757,,FARMERS BL - 120 AV,,40.686779,-73.761192,,,0,
503758,,FARMERS BL - 119 AV,,40.688576,-73.761902,,,0,
503759,,FARMERS BL - 118 AV,,40.690548,-73.762146,,,0,
503890,,FARMERS BL - LINDEN BL,,40.691986,-73.762314,,,0,
503760,,FARMERS BL - 116 AV,,40.693871,-73.762169,,,0,
503761,,FARMERS BL - 115 RD,,40.695518,-73.76152,,,0,
503772,,FARMERS BL - 114 DR,,40.696976,-73.761772,,,0,
503784,,FARMERS BL - 113 RD,,40.699024,-73.762688,,,0,
500182,,FARMERS BL - 112 AV,,40.700813,-73.764252,,,0,
500183,,FARMERS BL - 111 AV,,40.702003,-73.76561,,,0,
500184,,FARMERS BL - 109 AV,,40.703712,-73.766632,,,0,
504009,,FARMERS BL - 105 AV,,40.705803,-73.767044,,,0,
504459,,FARMERS BL - 103 AV,,40.707638,-73.767578,,,0,
500187,,FARMERS BL - HOLLIS AV,,40.709362,-73.768112,,,0,
504471,,165 ST - TERMINAL,,40.707558,-73.795502,,,0,
500209,,HILLSIDE AV - 179 ST,,40.712364,-73.784546,,,0,
500216,,FARMERS BL - HENDERSON AV,,40.708473,-73.767998,,,0,
504457,,FARMERS BL - 104 AV,,40.706402,-73.767357,,,0,
504456,,FARMERS BL - LUDLUM AV,,40.705341,-73.767113,,,0,
504486,,FARMERS BL - LIBERTY AV,,40.703049,-73.766693,,,0,
500220,,FARMERS BL - JORDAN AV,,40.701683,-73.765511,,,0,
500221,,FARMERS BL - KEESEVILLE AV,,40.7005,-73.764168,,,0,
500222,,FARMERS BL - 113 AV,,40.69923,-73.763039,,,0,
503771,,FARMERS BL - 114 RD,,40.697025,-73.762001,,,0,
503770,,FARMERS BL - QUENCER RD,,40.694862,-73.761978,,,0,
503763,,FARMERS BL - TURIN DR,,40.69278,-73.762543,,,0,
503913,,FARMERS BL - LINDEN BL,,40.691753,-73.762489,,,0,
503676,,FARMERS BL - 118 RD,,40.688641,-73.762108,,,0,
504069,,FARMERS BL - 120 AV,,40.686085,-73.761147,,,0,
500231,,FARMERS BL - 121 AV,,40.685154,-73.760841,,,0,
503764,,FARMERS BL - NELLIS ST,,40.683678,-73.760559,,,0,
504538,,FARMERS BL - MARS PL,,40.681538,-73.761131,,,0,
504539,,FARMERS BL - MERRICK BL,,40.679409,-73.761795,,,0,
500235,,FARMERS BL - 132 AV,,40.678028,-73.762627,,,0,
500236,,FARMERS BL - 133 RD,,40.676426,-73.763504,,,0,
500237,,FARMERS BL - WESTGATE ST,,40.674419,-73.763794,,,0,
500238,,FARMERS BL - 138 AV,,40.672913,-73.76413,,,0,
500239,,FARMERS BL - 140 AV,,40.671375,-73.764732,,,0,
504460,,FARMERS BL - 142 AV,,40.67028,-73.765366,,,0,
500241,,FARMERS BL - 143 RD,,40.668873,-73.766167,,,0,
500242,,FARMERS BL - 144 RD,,40.667576,-73.7668,,,0,
500243,,FARMERS BL - 145 RD,,40.664993,-73.768089,,,0,
500244,,FARMERS BL - GUY R BREWER BL,,40.663845,-73.768837,,,0,
500245,,FARMERS BL - 177 ST,,40.662624,-73.769829,,,0,
500246,,FARMERS BL - 175 ST,,40.660931,-73.771286,,,0,
500247,,FARMERS BL - ROCKAWAY BL,,40.65995,-73.773445,,,0,
503774,,N BOUNDRY R - CHINA CARGO AIRLINE,,40.659405,-73.775154,,,0,
503700,,N BOUNDRY R - HALMAR CO,,40.660667,-73.778687,,,0,
503701,,N BOUNDRY R - FEDERAL EXPRESS,,40.662682,-73.783264,,,0,
503702,,N BOUNDRY R - KOREAN AIRLINE,,40.66164,-73.790131,,,0,
504441,,148 ST - 150 AV,,40.661034,-73.792885,,,0,
504019,,148 ST - CENTER CARGO RD,,40.657845,-73.793785,,,0,
503705,,148 ST - S. SERVICE CT,,40.654991,-73.791588,,,0,
982038,,JFK Airport Terminal 5,,40.646969,-73.779579,,,0,
504470,,ARCHER AV - PARSONS BL,,40.702126,-73.801033,,,0,
503936,,ARCHER AV - 165 ST,,40.704128,-73.793381,,,0,
500255,,MERRICK BL - LIBERTY AV,,40.702141,-73.791077,,,0,
503967,,MERRICK BL - 104 AV,,40.701576,-73.790459,,,0,
500367,,MERRICK BL - 107 AV,,40.699707,-73.788559,,,0,
500368,,MERRICK BL - 108 AV,,40.698414,-73.78714,,,0,
500369,,MERRICK BL - 169 PL,,40.697842,-73.78595,,,0,
500370,,MERRICK BL - 109 AV,,40.696743,-73.783928,,,0,
500371,,MERRICK BL - 110 AV,,40.695679,-73.782654,,,0,
500372,,MERRICK BL - 111 AV,,40.694134,-73.781357,,,0,
500373,,MERRICK BL - SAYRES AV,,40.692596,-73.780106,,,0,
500374,,LINDEN BL - 172 ST,,40.691807,-73.778275,,,0,
500375,,LINDEN BL - 174 ST,,40.69236,-73.775955,,,0,
500376,,LINDEN BL - 175 PL,,40.692787,-73.774185,,,0,
500377,,LINDEN BL - 177 ST,,40.692989,-73.772324,,,0,
500378,,LINDEN BL - 178 ST,,40.692661,-73.77005,,,0,
503791,,LINDEN BL - 179 ST,,40.692329,-73.767731,,,0,
500380,,LINDEN BL - NEWBURG ST,,40.692196,-73.766785,,,0,
503768,,LINDEN BL - EVERITT PL,,40.691784,-73.763916,,,0,
500382,,LINDEN BL - FARMERS BL,,40.691689,-73.761932,,,0,
500383,,LINDEN BL - 190 ST,,40.692055,-73.760651,,,0,
500384,,LINDEN BL - 192 ST,,40.692482,-73.759094,,,0,
500385,,LINDEN BL - 195 ST,,40.693207,-73.756485,,,0,
500386,,LINDEN BL - 197 ST,,40.6936,-73.754814,,,0,
500387,,LINDEN BL - 199 ST,,40.694111,-73.753181,,,0,
500388,,LINDEN BL - 201 ST,,40.694569,-73.751526,,,0,
500389,,LINDEN BL - 202 ST,,40.695038,-73.749855,,,0,
500390,,LINDEN BL - 204 ST,,40.695503,-73.748177,,,0,
500391,,LINDEN BL - FRANCIS LEWIS BL,,40.696091,-73.746063,,,0,
500392,,LINDEN BL - SPRINGFIELD BL,,40.695965,-73.743225,,,0,
500393,,LINDEN BL - 219 ST,,40.69519,-73.740829,,,0,
500394,,LINDEN BL - 222 ST,,40.694397,-73.738205,,,0,
500395,,LINDEN BL - 225 ST,,40.693516,-73.73558,,,0,
500396,,LINDEN BL - 228 ST,,40.692768,-73.732819,,,0,
500397,,LINDEN BL - 230 ST,,40.692135,-73.731155,,,0,
500398,,LINDEN BL - 232 ST,,40.69125,-73.729568,,,0,
904026,,LINDEN BL - 235 ST,,40.690762,-73.727531,,,0,
904107,,235 ST - LINDEN BL,,40.690647,-73.727409,,,0,
503568,,235 ST - LINDEN BL,,40.69054,-73.727448,,,0,
500401,,LINDEN BL - 231 ST,,40.692211,-73.730995,,,0,
500403,,LINDEN BL - 228 ST,,40.693134,-73.733521,,,0,
500404,,LINDEN BL - 225 ST,,40.693954,-73.736122,,,0,
500406,,LINDEN BL - 222 ST,,40.694889,-73.739128,,,0,
500407,,LINDEN BL - 219 ST,,40.695564,-73.74115,,,0,
500408,,LINDEN BL - 217 ST,,40.696125,-73.743065,,,0,
503968,,LINDEN BL - NASHVILLE BL,,40.696461,-73.744896,,,0,
500410,,LINDEN BL - FRANCIS LEWIS BL,,40.696125,-73.74633,,,0,
500411,,LINDEN BL - 204 ST,,40.695564,-73.748421,,,0,
500412,,LINDEN BL - 201 ST,,40.694859,-73.750984,,,0,
500413,,LINDEN BL - 199 ST,,40.694324,-73.752998,,,0,
500414,,LINDEN BL - 197 ST,,40.693741,-73.754982,,,0,
500415,,LINDEN BL - 195 ST,,40.693256,-73.756813,,,0,
500416,,LINDEN BL - 193 ST,,40.692657,-73.758965,,,0,
500417,,LINDEN BL - 191 ST,,40.692188,-73.760666,,,0,
500418,,LINDEN BL - FARMERS BL,,40.691765,-73.762856,,,0,
500419,,LINDEN BL - NEWBURG ST,,40.692188,-73.765762,,,0,
500420,,LINDEN BL - 179 ST,,40.692593,-73.768585,,,0,
500421,,LINDEN BL - 178 ST,,40.692978,-73.771317,,,0,
500422,,LINDEN BL - 176 ST,,40.693039,-73.773735,,,0,
500424,,LINDEN BL - MURDOCK AV,,40.692223,-73.777153,,,0,
904004,,LINDEN BL - MERRICK BL,,40.691727,-73.779167,,,0,
500426,,MERRICK BL - SAYRES AV,,40.693329,-73.780357,,,0,
504462,,MERRICK BL - 111 AV,,40.695965,-73.78257,,,0,
500428,,MERRICK BL - 110 AV,,40.696316,-73.782944,,,0,
500429,,MERRICK BL - 109 AV,,40.697052,-73.783958,,,0,
500430,,MERRICK BL - 108 AV,,40.69836,-73.786613,,,0,
500431,,MERRICK BL - 107 AV,,40.699654,-73.788147,,,0,
500607,,MERRICK BL - 105 AV,,40.700779,-73.789337,,,0,
500433,,MERRICK BL - LIBERTY AV,,40.70229,-73.790497,,,0,
500340,,168 ST - DOUGLAS AV,,40.70396,-73.790977,,,0,
503622,,ARCHER AV - 165 ST,,40.704163,-73.793724,,,0,
503172,,ARCHER AV - PARSONS BL,,40.702602,-73.799728,,,0,
504008,,LIBERTY AV - MERRICK BL,,40.702381,-73.791374,,,0,
504461,,LINDEN BL - 172 ST,,40.691841,-73.778778,,,0,
504532,,204 ST - 111 AV,,40.705322,-73.752998,,,0,
504037,,116 AV - FRANCIS LEWIS BL,,40.69762,-73.746674,,,0,
504467,,ARCHER AV - PARSONS BL,,40.702312,-73.800117,,,0,
503937,,ARCHER AV - MERRICK BL,,40.7043,-73.792931,,,0,
500451,,MERRICK BL - LINDEN BL,,40.691757,-73.779449,,,0,
500452,,MERRICK BL - 115 AV,,40.689537,-73.777779,,,0,
500453,,MERRICK BL - 116 AV,,40.688046,-73.776466,,,0,
500454,,MERRICK BL - FOCH BL,,40.686726,-73.774673,,,0,
500541,,MERRICK BL - 119 AV,,40.685787,-73.773338,,,0,
500455,,MERRICK BL - VICTORIA RD,,40.684975,-73.772141,,,0,
500543,,MERRICK BL - BAISLEY BL,,40.683716,-73.77005,,,0,
500544,,MERRICK BL - 125 AV,,40.682156,-73.766937,,,0,
500545,,MERRICK BL - 127 AV,,40.68129,-73.765144,,,0,
500546,,MERRICK BL - 129 AV,,40.68058,-73.763672,,,0,
500547,,MERRICK BL - 130 RD,,40.67984,-73.762085,,,0,
500548,,MERRICK BL - BELKNAP ST,,40.678829,-73.759369,,,0,
500549,,MERRICK BL - MONTAUK ST,,40.679329,-73.757484,,,0,
500550,,MERRICK BL - PINEVILLE LA,,40.680058,-73.755585,,,0,
500551,,MERRICK BL - SPRINGFIELD BL,,40.679916,-73.752968,,,0,
500552,,MERRICK BL - 218 ST,,40.679504,-73.75116,,,0,
500553,,MERRICK BL - 220 ST,,40.678802,-73.748962,,,0,
500554,,MERRICK BL - 222 ST,,40.678112,-73.746666,,,0,
500555,,MERRICK BL - 224 ST,,40.677658,-73.74527,,,0,
500556,,MERRICK BL - 226 ST,,40.677067,-73.743614,,,0,
500557,,MERRICK BL - 228 ST,,40.676456,-73.741829,,,0,
503564,,MERRICK BL - 230 ST,,40.675884,-73.740089,,,0,
500559,,MERRICK BL - 231 ST,,40.675278,-73.738312,,,0,
500560,,MERRICK BL - 233 ST,,40.674862,-73.737083,,,0,
500561,,MERRICK BL - LAURELTON PY,,40.673946,-73.735245,,,0,
500562,,MERRICK BL - 241 ST,,40.673592,-73.732414,,,0,
500563,,MERRICK BL - 243 ST,,40.673836,-73.730888,,,0,
500564,,MERRICK BL - HOOK CREEK BL,,40.674049,-73.727692,,,0,
500565,,HOOK CREEK BL - 133 DR,,40.672066,-73.72805,,,0,
500566,,HOOK CREEK BL - 135 AV,,40.669945,-73.728729,,,0,
500567,,HOOK CREEK BL - 136 AV,,40.668545,-73.729233,,,0,
500568,,HOOK CREEK BL - SUNRISE HY,,40.665661,-73.72995,,,0,
504091,,SUNRISE HWY - LIRR STA,,40.66568,-73.734108,,,0,
804062,,FRANCIS LEWIS BL - SUNRISE HY,,40.666012,-73.735939,,,0,
504463,,FRANCIS LEWIS BL - SUNRISE HY,,40.666046,-73.735962,,,0,
500572,,BROOKVILLE BL - 137 AV,,40.669487,-73.73616,,,0,
500573,,BROOKVILLE BL - 136 AV,,40.672466,-73.734322,,,0,
500575,,BROOKVILLE BL - MERRICK BL,,40.67345,-73.733559,,,0,
500576,,MERRICK BL - LAURELTON PY,,40.674232,-73.735329,,,0,
500577,,MERRICK BL - 233 ST,,40.675026,-73.736687,,,0,
500578,,MERRICK BL - 231 ST,,40.675724,-73.73896,,,0,
500579,,MERRICK BL - 230 ST,,40.676342,-73.740814,,,0,
500580,,MERRICK BL - 228 ST,,40.676914,-73.742531,,,0,
500581,,MERRICK BL - 226 ST,,40.677513,-73.744247,,,0,
500582,,MERRICK BL - 224 ST,,40.678093,-73.745934,,,0,
500583,,MERRICK BL - 222 ST,,40.678631,-73.747673,,,0,
500584,,MERRICK BL - 220 ST,,40.679165,-73.74942,,,0,
500585,,MERRICK BL - 218 ST,,40.679684,-73.75103,,,0,
500586,,MERRICK BL - SPRINGFIELD BL,,40.680271,-73.753471,,,0,
500587,,MERRICK BL - RIDGEDALE AV,,40.680325,-73.754166,,,0,
500588,,MERRICK BL - PINEVILLE LA,,40.680199,-73.755844,,,0,
500589,,MERRICK BL - MONTAUK ST,,40.679619,-73.757332,,,0,
500590,,MERRICK BL - BELKNAP ST,,40.679161,-73.760246,,,0,
500591,,MERRICK BL - FARMERS BL,,40.680084,-73.762085,,,0,
500592,,MERRICK BL - ZOLLER RD,,40.681118,-73.764313,,,0,
500593,,MERRICK BL - SELOVER RD,,40.681667,-73.765411,,,0,
500594,,MERRICK BL - URSINA RD,,40.682602,-73.767365,,,0,
500507,,MERRICK BL - BAISLEY BL,,40.684113,-73.770142,,,0,
500508,,MERRICK BL - VICTORIA RD,,40.685551,-73.772591,,,0,
500509,,MERRICK BL - FOCH BL,,40.687317,-73.775085,,,0,
500510,,MERRICK BL - 116 AV,,40.688637,-73.776718,,,0,
500511,,MERRICK BL - 115 AV,,40.690319,-73.77803,,,0,
500512,,MERRICK BL - LINDEN BL,,40.691578,-73.778984,,,0,
503100,,SUNRISE HWY - SUNRISE CINEMAS,,40.665306,-73.726418,,,0,
503970,,SUNRISE HWY - CALDOR,,40.664955,-73.719681,,,0,
503842,,SUNRISE HWY - S TERRACE PL,,40.664192,-73.716774,,,0,
503102,,GREEN ACRES - STERNS,,40.660652,-73.715599,,,0,
503103,,GREEN ACRES - WOOLWORTHS,,40.660534,-73.718262,,,0,
804053,,GREEN ACRES - MACY'S,,40.661846,-73.723145,,,0,
503105,,GREEN ACRES - MACYS,,40.661907,-73.723259,,,0,
503106,,GREEN ACRE - BEST BUY,,40.663441,-73.724754,,,0,
503827,,HOOK CREEK BL - N CONDUIT AV,,40.666298,-73.729721,,,0,
504442,,HOOK CREEK BL - 136 AV,,40.668793,-73.728966,,,0,
504443,,HOOK CREEK BL - 134 AV,,40.670784,-73.728271,,,0,
503110,,MERRICK BL - HOOK CREEK BL,,40.674259,-73.727959,,,0,
503127,,MERRICK BL - 242 ST,,40.673927,-73.731598,,,0,
904014,,ROOSEVELT AV - PRINCE ST,,40.759052,-73.831841,,,0,
503096,,ROOSEVELT AV - MAIN ST,,40.759766,-73.829048,,,0,
500851,,ROOSEVELT AV - BOWNE ST,,40.760883,-73.824577,,,0,
500852,,BOWNE ST - 41 AV,,40.759541,-73.823891,,,0,
500853,,SANFORD AV - BOWNE ST,,40.758224,-73.822769,,,0,
500854,,SANFORD AV - PARSONS BL,,40.758774,-73.820732,,,0,
500855,,SANFORD AV - 147 ST,,40.759815,-73.816872,,,0,
500856,,SANFORD AV - 149 ST,,40.760418,-73.814659,,,0,
500857,,SANFORD AV - MURRAY ST,,40.761158,-73.811844,,,0,
500858,,SANFORD AV - 156 ST,,40.761162,-73.809113,,,0,
500859,,SANFORD AV - 158 ST,,40.760815,-73.807297,,,0,
500860,,SANFORD AV - 160 ST,,40.760468,-73.80545,,,0,
500861,,SANFORD AV - 162 ST,,40.760136,-73.803589,,,0,
500862,,SANFORD AV - 165 ST,,40.759716,-73.800827,,,0,
500863,,NORTHERN BL - 168 ST,,40.758823,-73.798141,,,0,
500864,,NORTHERN BL - 171 ST,,40.758022,-73.795937,,,0,
500865,,NORTHERN BL - AUBURNDALE LA,,40.757629,-73.794525,,,0,
500866,,NORTHERN BL - UTOPIA PY,,40.75766,-73.792526,,,0,
500867,,NORTHERN BL - 190 ST,,40.757683,-73.791595,,,0,
500868,,NORTHERN BL - 192 ST,,40.757755,-73.789009,,,0,
500869,,NORTHERN BL - 194 ST,,40.757816,-73.787132,,,0,
500870,,NORTHERN BL - 196 ST,,40.75782,-73.785255,,,0,
500871,,NORTHERN BL - FRANCIS LEWIS BL,,40.757671,-73.783653,,,0,
500872,,NORTHERN BL - 202 ST,,40.757492,-73.781158,,,0,
500873,,NORTHERN BL - 204 ST,,40.75769,-73.778885,,,0,
500874,,NORTHERN BL - CLEARVIEW EP,,40.758301,-73.77655,,,0,
500875,,NORTHERN BL - CORPORAL KENNEDY ST,,40.759174,-73.773308,,,0,
500876,,NORTHERN BL - 211 ST,,40.759693,-73.771385,,,0,
500877,,NORTHERN BL - BELL BL,,40.760216,-73.768791,,,0,
500878,,NORTHERN BL - 215 ST,,40.760456,-73.76709,,,0,
500879,,NORTHERN BL - 217 ST,,40.760906,-73.764359,,,0,
500880,,NORTHERN BL - SPRINGFIELD BL,,40.761223,-73.762421,,,0,
500881,,NORTHERN BL - 220 PL,,40.761551,-73.760437,,,0,
500882,,NORTHERN BL - 223 ST,,40.761868,-73.758606,,,0,
500883,,NORTHERN BL - 230 ST,,40.764324,-73.747253,,,0,
503259,,NORTHERN BL - 232 ST,,40.763889,-73.7491,,,0,
500885,,NORTHERN BL - ALAMEDA AV,,40.76498,-73.745232,,,0,
504432,,NORTHERN BL - 243 ST,,40.765327,-73.7435,,,0,
500887,,NORTHERN BL - 244 ST,,40.765488,-73.741722,,,0,
500888,,NORTHERN BL - 248 ST,,40.766758,-73.739281,,,0,
500889,,NORTHERN BL - MARATHON PY,,40.768162,-73.73764,,,0,
500890,,NORTHERN BL - BROWN VALE LA,,40.769897,-73.73597,,,0,
500891,,LITTLE NECK PY - NORTHERN BL,,40.770466,-73.735085,,,0,
500892,,PEMBROKE AV - GLENWOOD ST,,40.771767,-73.733307,,,0,
500893,,NORTHERN BL - MORGAN ST,,40.771725,-73.734749,,,0,
500895,,NORTHERN BL - LITTLE NECK PY,,40.770344,-73.735924,,,0,
500896,,NORTHERN BL - MARATHON PY,,40.76823,-73.737915,,,0,
500897,,NORTHERN BL - 248 ST,,40.76722,-73.739067,,,0,
500898,,NORTHERN BL - 245 ST,,40.765839,-73.741196,,,0,
503573,,NORTHERN BL - 244 ST,,40.765594,-73.742668,,,0,
500899,,NORTHERN BL - DOUGLASTON PY,,40.765472,-73.744209,,,0,
500900,,NORTHERN BL - ALAMEDA AV,,40.764858,-73.746078,,,0,
500901,,NORTHERN BL - 232 ST,,40.764641,-73.746902,,,0,
503609,,NORTHERN BL - 227 ST,,40.763187,-73.753189,,,0,
500902,,NORTHERN BL - 223 ST,,40.76202,-73.758911,,,0,
500903,,NORTHERN BL - 221 ST,,40.7617,-73.760765,,,0,
500904,,NORTHERN BL - 219 ST,,40.761272,-73.763382,,,0,
500905,,NORTHERN BL - 217 ST,,40.760983,-73.765221,,,0,
500906,,NORTHERN BL - 215 PL,,40.760677,-73.767021,,,0,
500907,,NORTHERN BL - BELL BL,,40.760372,-73.769203,,,0,
500908,,NORTHERN BL - 212 ST,,40.759861,-73.771568,,,0,
500909,,NORTHERN BL - CORPORAL KENNEDY ST,,40.759151,-73.774254,,,0,
500910,,NORTHERN BL - CLEARVIEW EP,,40.758446,-73.776871,,,0,
500911,,NORTHERN BL - 204 ST,,40.757759,-73.779747,,,0,
500912,,NORTHERN BL - 202 ST,,40.75771,-73.781548,,,0,
500913,,NORTHERN BL - FRANCIS LEWIS BL,,40.757835,-73.783134,,,0,
500914,,NORTHERN BL - 196 ST,,40.758072,-73.786079,,,0,
500915,,NORTHERN BL - 194 ST,,40.757984,-73.788025,,,0,
500916,,NORTHERN BL - 192 ST,,40.757931,-73.789864,,,0,
500917,,NORTHERN BL - 189 ST,,40.757862,-73.792564,,,0,
500918,,NORTHERN BL - 172 ST,,40.757828,-73.794418,,,0,
500919,,NORTHERN BL - 171 ST,,40.758327,-73.796158,,,0,
500920,,NORTHERN BL - 169 ST,,40.758987,-73.797966,,,0,
500922,,SANFORD AV - 165 ST,,40.759979,-73.801659,,,0,
500923,,SANFORD AV - 162 ST,,40.76041,-73.804398,,,0,
500924,,SANFORD AV - 160 ST,,40.760754,-73.806244,,,0,
500925,,SANFORD AV - 158 ST,,40.761093,-73.808037,,,0,
500926,,SANFORD AV - 156 ST,,40.761398,-73.809898,,,0,
500927,,SANFORD AV - MURRAY ST,,40.761086,-73.812683,,,0,
500929,,SANFORD AV - 149 ST,,40.760319,-73.815529,,,0,
500930,,SANFORD AV - 147 ST,,40.759724,-73.817734,,,0,
500931,,SANFORD AV - PARSONS BL,,40.758785,-73.821205,,,0,
505048,,BOWNE ST - SANFORD AV,,40.758511,-73.823212,,,0,
504992,,ROOSEVELT AV - BOWNE ST,,40.760929,-73.824936,,,0,
904016,,ROOSEVELT AV - UNION ST,,40.760212,-73.827675,,,0,
804032,,ROOSEVELT AV - PRINCE ST,,40.759201,-73.831383,,,0,
504445,,TOTTEN AV - CROSS ISLAND PY,,40.791473,-73.781097,,,0,
501044,,BELL BL - 212 ST,,40.788345,-73.781723,,,0,
501045,,BELL BL - 14 AV,,40.787594,-73.780457,,,0,
501046,,BELL BL - 16 AV,,40.785156,-73.778603,,,0,
501047,,BELL BL - 18 AV,,40.783485,-73.777466,,,0,
501048,,BELL BL - 23 AV,,40.782101,-73.776405,,,0,
501049,,BELL BL - 24 AV,,40.779846,-73.775505,,,0,
501050,,BELL BL - 28 AV,,40.7771,-73.775635,,,0,
501051,,BELL BL - 29 AV,,40.774979,-73.775177,,,0,
501052,,BELL BL - 32 AV,,40.773743,-73.77491,,,0,
501053,,BELL BL - 33 AV,,40.771763,-73.77449,,,0,
501054,,BELL BL - 33 RD,,40.770702,-73.774261,,,0,
904023,,BELL BL - 35 AV,,40.769058,-73.773857,,,0,
501056,,BELL BL - 38 AV,,40.768078,-73.773415,,,0,
501057,,BELL BL - 39 AV,,40.764973,-73.771835,,,0,
501058,,BELL BL - 41 AV,,40.763283,-73.77092,,,0,
501059,,BELL BL - 43 AV,,40.761505,-73.770096,,,0,
501060,,BELL BL - NORTHERN BL,,40.760387,-73.769577,,,0,
500921,,NORTHERN BL - 167 ST,,40.75964,-73.799759,,,0,
501075,,NORTHERN BL - 165 ST,,40.760529,-73.801468,,,0,
501076,,NORTHERN BL - STATION RD,,40.761459,-73.802711,,,0,
501077,,NORTHERN BL - 161 ST,,40.762829,-73.805016,,,0,
501078,,NORTHERN BL - 159 ST,,40.763443,-73.806839,,,0,
501079,,NORTHERN BL - 157 ST,,40.764027,-73.808617,,,0,
501080,,NORTHERN BL - 154 ST,,40.764877,-73.81144,,,0,
501081,,NORTHERN BL - MURRAY ST,,40.765228,-73.813377,,,0,
501082,,NORTHERN BL - 150 ST,,40.76535,-73.815002,,,0,
501083,,NORTHERN BL - 149 ST,,40.765423,-73.817863,,,0,
501084,,NORTHERN BL - 147 ST,,40.765182,-73.819885,,,0,
501085,,NORTHERN BL - PARSONS BL,,40.764694,-73.823944,,,0,
501086,,NORTHERN BL - BOWNE ST,,40.764477,-73.825806,,,0,
904188,,UNION ST - NORTHERN BL,,40.76366,-73.828217,,,0,
904020,,39 AV - 138 ST,,40.760937,-73.827286,,,0,
504476,,39 AV - 138 ST,,40.761009,-73.827042,,,0,
500995,,NORTHERN BL - UNION ST,,40.763874,-73.827728,,,0,
500996,,NORTHERN BL - BOWNE ST,,40.764309,-73.825462,,,0,
500997,,NORTHERN BL - PARSONS BL,,40.764606,-73.822975,,,0,
503150,,NORTHERN BL - 147 ST,,40.765087,-73.818993,,,0,
500999,,NORTHERN BL - 149 ST,,40.76524,-73.816826,,,0,
501000,,NORTHERN BL - 150 ST,,40.765171,-73.815292,,,0,
501001,,NORTHERN BL - MURRAY ST,,40.764862,-73.8125,,,0,
503274,,NORTHERN BL - 154 ST,,40.76445,-73.810593,,,0,
501719,,NORTHERN BL - ROOSEVELT AV,,40.764091,-73.80954,,,0,
501004,,NORTHERN BL - 157 ST,,40.763561,-73.807861,,,0,
501005,,NORTHERN BL - 159 ST,,40.762955,-73.806053,,,0,
501006,,NORTHERN BL - 162 ST,,40.762108,-73.803864,,,0,
501007,,NORTHERN BL - 163 ST,,40.761089,-73.802589,,,0,
501008,,NORTHERN BL - 166 ST,,40.75948,-73.799934,,,0,
501023,,BELL BL - NORTHERN BL,,40.760567,-73.769432,,,0,
501024,,BELL BL - 42 AV,,40.762985,-73.770554,,,0,
501025,,BELL BL - 40 AV,,40.764565,-73.771385,,,0,
501026,,BELL BL - 38 AV,,40.766472,-73.772415,,,0,
501027,,BELL BL - 36 AV,,40.767944,-73.773155,,,0,
904022,,BELL BL - 35 AV,,40.768902,-73.773651,,,0,
503255,,BELL BL - 33 RD,,40.771366,-73.774239,,,0,
501030,,BELL BL - 33 AV,,40.772419,-73.774467,,,0,
501031,,BELL BL - 32 AV,,40.773567,-73.774712,,,0,
501032,,BELL BL - 29 AV,,40.775654,-73.775162,,,0,
501033,,BELL BL - 28 AV,,40.777367,-73.775536,,,0,
501035,,BELL BL - 24 AV,,40.779217,-73.775482,,,0,
504429,,BELL BL - 24 AV,,40.77972,-73.775291,,,0,
501037,,BELL BL - 23 AV,,40.782776,-73.776634,,,0,
501038,,BELL BL - 18 AV,,40.78389,-73.777428,,,0,
501039,,BELL BL - 16 AV,,40.785744,-73.778778,,,0,
501040,,BELL BL - 14 AV,,40.78812,-73.780807,,,0,
501041,,BELL BL - 212 ST,,40.788715,-73.782074,,,0,
904021,,TOTTEN AV - CROSS ISLAND PKY,,40.791363,-73.780937,,,0,
904189,,ROOSEVELT AV - MAIN ST,,40.759628,-73.829964,,,0,
804029,,ROOSEVELT AV - PRINCE ST,,40.759178,-73.831505,,,0,
503728,,ROOSEVELT AV - MAIN ST,,40.759926,-73.828362,,,0,
501148,,41 AV - PARSONS BL,,40.760578,-73.821129,,,0,
501149,,41 AV - 147 ST,,40.761517,-73.817665,,,0,
501150,,41 AV - 149 ST,,40.762123,-73.815445,,,0,
501152,,150 ST - ROOSEVELT AV,,40.763992,-73.814507,,,0,
501153,,150 ST - NORTHERN BL,,40.765633,-73.815117,,,0,
501154,,150 ST - 34 AV,,40.767822,-73.815369,,,0,
501155,,150 ST - 33 AV,,40.769249,-73.815529,,,0,
501156,,150 ST - BAYSIDE AV,,40.771412,-73.815781,,,0,
501157,,150 ST - 29 AV,,40.772533,-73.815514,,,0,
501158,,150 ST - 27 AV,,40.773926,-73.81517,,,0,
501159,,150 ST - 25 DR,,40.775337,-73.814941,,,0,
501160,,150 ST - 24 RD,,40.776756,-73.814751,,,0,
501161,,150 ST - 23 AV,,40.77821,-73.814552,,,0,
501162,,150 ST - 21 AV,,40.780155,-73.814285,,,0,
501163,,150 ST - 20 AV,,40.781578,-73.814087,,,0,
501164,,150 ST - 18 AV,,40.783001,-73.813896,,,0,
501165,,150 ST - 17 AV,,40.78442,-73.813698,,,0,
501166,,150 ST - 15 DR,,40.7855,-73.81356,,,0,
505059,,CROSS ISLAND PKY - 150 ST,,40.786865,-73.813072,,,0,
501172,,CROSS ISLAND PKY - CLINTONVILLE ST,,40.786304,-73.80954,,,0,
503919,,CROSS ISLAND PY - 154 ST,,40.785919,-73.807709,,,0,
501174,,154 ST - CRYDERS LA,,40.786934,-73.807823,,,0,
501175,,154 ST - 14 AV,,40.789757,-73.807495,,,0,
501176,,154 ST - 12 RD,,40.791157,-73.807304,,,0,
501177,,154 ST - 11 AV,,40.792183,-73.807167,,,0,
505126,,154 ST - 9 AV,,40.793625,-73.806969,,,0,
505127,,POWELLS COVE BL - 157 ST,,40.79438,-73.803329,,,0,
505160,,POWELLS COVE BL - 160 ST,,40.794205,-73.801094,,,0,
904172,,162 ST - POWELL'S COVE BL,,40.79406,-73.79969,,,0,
804030,,166 ST - POWELLS COVE BL,,40.793804,-73.797417,,,0,
501184,,166 ST - POWELLS COVE BL,,40.793839,-73.797424,,,0,
501189,,POWELLS COVE BL - 162 ST,,40.794189,-73.799484,,,0,
501190,,POWELLS COVE BL - 160 ST,,40.794338,-73.8013,,,0,
505128,,POWELLS COVE BL - 159 ST,,40.794453,-73.802711,,,0,
505129,,154 ST - POWELLS COVE BL,,40.794411,-73.807022,,,0,
505130,,154 ST - 11 AV,,40.792397,-73.807297,,,0,
501195,,154 ST - 12 RD,,40.790565,-73.807549,,,0,
501196,,154 ST - 14 AV,,40.789139,-73.807808,,,0,
501197,,154 ST - CROSS ISLAND PY,,40.787098,-73.808075,,,0,
501198,,CROSS ISLAND PKY - CLINTONVILLE ST,,40.787167,-73.810165,,,0,
501199,,CROSS ISLAND PY - 150 PL,,40.787357,-73.811729,,,0,
504427,,150 ST - CROSS ISLAND PY SVC RD,,40.786663,-73.813538,,,0,
501201,,150 ST - 16 RD,,40.784542,-73.813828,,,0,
501202,,150 ST - 17 RD,,40.783112,-73.814026,,,0,
501203,,150 ST - 19 AV,,40.7817,-73.814224,,,0,
501204,,150 ST - 20 RD,,40.780273,-73.814415,,,0,
501205,,150 ST - 22 AV,,40.778584,-73.814651,,,0,
504548,,150 ST - 24 AV,,40.777283,-73.814827,,,0,
504032,,150 ST - 25 AV,,40.775574,-73.815056,,,0,
503218,,150 ST - 27 AV,,40.773354,-73.81546,,,0,
501210,,150 ST - BAYSIDE AV,,40.771175,-73.815926,,,0,
501211,,150 ST - 33 AV,,40.76865,-73.815636,,,0,
501212,,150 ST - 34 AV,,40.767227,-73.815475,,,0,
501213,,150 ST - 35 AV,,40.766083,-73.815346,,,0,
501214,,150 ST - NORTHERN BL,,40.764984,-73.815109,,,0,
503979,,150 ST - ROOSEVELT AV,,40.763367,-73.814362,,,0,
503927,,41 AV - 150 ST,,40.76255,-73.814331,,,0,
501217,,41 AV - 149 ST,,40.762012,-73.816322,,,0,
501218,,41 AV - 147 ST,,40.761421,-73.818504,,,0,
501219,,41 AV - PARSONS BL,,40.760479,-73.822006,,,0,
804031,,ROOSEVELT AV - UNION ST,,40.760235,-73.827705,,,0,
501110,,150 ST - CROSS ISLAND PKY SVC R,,40.78759,-73.813271,,,0,
501111,,150 ST - 14 AV,,40.789146,-73.813858,,,0,
501112,,150 ST - 12 AV,,40.790657,-73.814461,,,0,
501113,,150 ST - 10 AV,,40.792728,-73.815292,,,0,
501114,,150 ST - 8 AV,,40.794228,-73.815887,,,0,
501115,,7 AV - 150 ST,,40.794815,-73.81575,,,0,
904025,,CLINTONVILLE ST - 7 AV,,40.795059,-73.813873,,,0,
904180,,CLINTONVILLE ST - 10 AV,,40.793034,-73.813072,,,0,
904181,,10 AV - 152 ST,,40.793472,-73.810196,,,0,
904182,,154 ST - 10 AV,,40.793468,-73.80719,,,0,
904183,,10 AV - 152 ST,,40.793617,-73.810471,,,0,
904184,,CLINTONVILLE ST - 10 AV,,40.793095,-73.812912,,,0,
904185,,151 ST - 7 AV,,40.795086,-73.81353,,,0,
501118,,150 ST - 7 AV,,40.79446,-73.816116,,,0,
501119,,150 ST - 9 AV,,40.792805,-73.81546,,,0,
501120,,150 ST - 11 AV,,40.791168,-73.814804,,,0,
501122,,150 ST - 14 AV,,40.788494,-73.813744,,,0,
504477,,39 AV - UNION ST,,40.760906,-73.827316,,,0,
501093,,UNION ST - 35 AV,,40.765247,-73.827797,,,0,
501094,,UNION ST - 33 AV,,40.767864,-73.826813,,,0,
501095,,UNION ST - BAYSIDE AV,,40.770008,-73.826485,,,0,
501232,,BAYSIDE AV - PARSONS BL,,40.770424,-73.824234,,,0,
501233,,BAYSIDE AV - 146 ST,,40.770824,-73.821457,,,0,
501234,,BAYSIDE AV - 148 ST,,40.771332,-73.817924,,,0,
501235,,BAYSIDE AV - 150 ST,,40.771461,-73.815453,,,0,
501236,,BAYSIDE AV - MURRAY LA,,40.771503,-73.813667,,,0,
501237,,BAYSIDE AV - 152 ST,,40.771523,-73.811607,,,0,
501238,,BAYSIDE AV - 154 ST,,40.771526,-73.809631,,,0,
501239,,29 AV - 156 ST,,40.771416,-73.80825,,,0,
501240,,29 AV - 158 ST,,40.771152,-73.806412,,,0,
501241,,29 AV - 160 ST,,40.771053,-73.804039,,,0,
501242,,29 AV - 162 ST,,40.771111,-73.802147,,,0,
501243,,29 AV - 164 ST,,40.771004,-73.800758,,,0,
503981,,29 AV - 167 ST,,40.770786,-73.797958,,,0,
501246,,29 AV - 170 ST,,40.770565,-73.795158,,,0,
501247,,29 AV - FRANCIS LEWIS BL,,40.770428,-73.793297,,,0,
501248,,FRANCIS LEWIS BL - 28 AV,,40.771805,-73.794235,,,0,
501249,,FRANCIS LEWIS BL - 27 AV,,40.772629,-73.795067,,,0,
501257,,FRANCIS LEWIS BL - 169 ST,,40.77343,-73.796143,,,0,
501258,,FRANCIS LEWIS BL - 25 AV,,40.774689,-73.797928,,,0,
501259,,FRANCIS LEWIS BL - 24 AV,,40.776215,-73.799294,,,0,
501260,,FRANCIS LEWIS BL - 163 ST,,40.778023,-73.800827,,,0,
501261,,FRANCIS LEWIS BL - WILLETS PT BL,,40.780121,-73.802254,,,0,
501262,,WILLETS PT BL - 19 AV,,40.781269,-73.801193,,,0,
501263,,WILLETS PT BL - 163-54 WILLETS POINT B,,40.782295,-73.800064,,,0,
501264,,WILLETS PT BL - 17 AV,,40.783234,-73.798904,,,0,
501265,,WILLETS PT BL - 15 DR,,40.784855,-73.796684,,,0,
501266,,WILLETS PT BL - UTOPIA PY,,40.785763,-73.795204,,,0,
501267,,CROSS ISLAND PKWY - 201 ST,,40.786308,-73.793335,,,0,
501268,,CROSS ISLAND PKWY - GOLF COURSE,,40.787266,-73.791512,,,0,
501269,,CROSS ISLAND PKWY - BAYRIDGE CONDO,,40.788754,-73.787811,,,0,
501270,,CROSS ISLAND PKWY - 208 PL,,40.7887,-73.784576,,,0,
504478,,CROSS ISLAND PKWY - 209 ST,,40.788792,-73.783127,,,0,
501250,,UTOPIA PY - 26 AV,,40.774296,-73.792679,,,0,
501251,,UTOPIA PY - 24 AV,,40.775723,-73.792961,,,0,
501252,,UTOPIA PY - 22 AV,,40.777336,-73.793282,,,0,
501253,,UTOPIA PY - 21 AV,,40.779049,-73.79361,,,0,
501254,,UTOPIA PY - 19 AV,,40.780781,-73.793953,,,0,
501255,,UTOPIA PY - 17 AV,,40.78257,-73.794304,,,0,
501256,,UTOPIA PY - 16 AV,,40.783955,-73.794579,,,0,
503021,,UTOPIA PY - WILLETS POINT BL,,40.785789,-73.794998,,,0,
503221,,CROSS ISLAND PKWY - 212 ST,,40.788906,-73.782784,,,0,
501281,,CROSS ISLAND PKWY - 208 PL,,40.788876,-73.785049,,,0,
501282,,CROSS ISLAND PKWY - BAYRIDGE CONDO,,40.788895,-73.787788,,,0,
501283,,CROSS ISLAND PKWY - GOLF COURSE,,40.787262,-73.791847,,,0,
501284,,CROSS ISLAND PY - UTOPIA PY,,40.785934,-73.794907,,,0,
501285,,WILLETS PT BL - 16 AV,,40.784378,-73.797638,,,0,
501286,,WILLETS PT BL - 17 AV,,40.782742,-73.799789,,,0,
501287,,WILLETS PT BL - 160-57 WILLETS PT BL,,40.782013,-73.800621,,,0,
501288,,FRANCIS LEWIS BL - WILLETS PT BL,,40.779736,-73.80246,,,0,
501289,,FRANCIS LEWIS BL - 21 AV,,40.778587,-73.801704,,,0,
501290,,FRANCIS LEWIS BL - 163 ST,,40.777054,-73.80043,,,0,
501291,,FRANCIS LEWIS BL - 24 AV,,40.775703,-73.799171,,,0,
501292,,FRANCIS LEWIS BL - 25 AV,,40.774166,-73.797806,,,0,
501293,,FRANCIS LEWIS BL - 168 ST,,40.77319,-73.796196,,,0,
501294,,FRANCIS LEWIS BL - 169 ST,,40.772587,-73.795296,,,0,
501295,,FRANCIS LEWIS BL - 170 ST,,40.771721,-73.794518,,,0,
501296,,29 AV - 171 ST,,40.77058,-73.793983,,,0,
501297,,29 AV - 169 ST,,40.770733,-73.79586,,,0,
501298,,29 AV - 167 ST,,40.770916,-73.798233,,,0,
501299,,29 AV - 165 ST,,40.771061,-73.800095,,,0,
504986,,29 AV - 163 ST,,40.771214,-73.801979,,,0,
501301,,29 AV - 161 ST,,40.771187,-73.803841,,,0,
501302,,29 AV - 159 ST,,40.771191,-73.805748,,,0,
501303,,29 AV - 157 ST,,40.771431,-73.807594,,,0,
501304,,BAYSIDE AV - 154 ST,,40.771656,-73.810516,,,0,
501305,,BAYSIDE AV - MURRAY ST,,40.771629,-73.813095,,,0,
501306,,BAYSIDE AV - 150 ST,,40.771564,-73.815697,,,0,
501307,,BAYSIDE AV - 149 ST,,40.771523,-73.817444,,,0,
501308,,BAYSIDE AV - 148 ST,,40.77129,-73.819122,,,0,
501309,,BAYSIDE AV - 146 ST,,40.770809,-73.822311,,,0,
501310,,BAYSIDE AV - PARSONS BL,,40.770386,-73.825127,,,0,
501311,,BAYSIDE AV - UNION ST,,40.770199,-73.826408,,,0,
501139,,UNION ST - 33 AV,,40.76762,-73.827103,,,0,
501140,,UNION ST - 35 AV,,40.765469,-73.827927,,,0,
501141,,UNION ST - NORTHERN BL,,40.764202,-73.828171,,,0,
804050,,39 AV - UNION ST,,40.760902,-73.827362,,,0,
503220,,UTOPIA PY - WILLETS POINT BL,,40.785721,-73.795135,,,0,
501273,,UTOPIA PY - 16 AV,,40.783733,-73.794807,,,0,
504527,,UTOPIA PY - 169 ST,,40.781513,-73.794373,,,0,
501275,,UTOPIA PY - 19 AV,,40.780106,-73.794098,,,0,
501276,,UTOPIA PY - 21 RD,,40.777515,-73.793579,,,0,
501277,,UTOPIA PY - 22 AV,,40.776684,-73.793419,,,0,
501278,,UTOPIA PY - 24 AV,,40.775181,-73.793121,,,0,
501279,,UTOPIA PY - 25 AV,,40.77412,-73.792908,,,0,
503964,,MERRICK BL - ARCHER AV,,40.704906,-73.793304,,,0,
503674,,168 ST - JAMAICA AV,,40.706734,-73.792641,,,0,
503180,,168 ST - 89 AV,,40.708538,-73.793823,,,0,
503975,,168 ST - HILLSIDE AV,,40.709774,-73.794556,,,0,
501903,,HILLSIDE AV - 169 ST,,40.710758,-73.792603,,,0,
501324,,HILLSIDE AV - 178 ST,,40.712276,-73.784935,,,0,
501328,,188 ST - 87 DR,,40.71571,-73.773796,,,0,
501329,,188 ST - HENLEY RD,,40.717781,-73.774796,,,0,
501330,,188 ST - SOHO DR,,40.71944,-73.775597,,,0,
501331,,188 ST - MCLAUGHLIN AV,,40.721291,-73.776489,,,0,
501332,,188 ST - AVON RD,,40.723587,-73.778122,,,0,
501333,,188 ST - ABERDEEN RD,,40.726147,-73.779633,,,0,
501334,,188 ST - 81 AV,,40.727757,-73.780388,,,0,
501335,,188 ST - UNION TP,,40.729084,-73.781006,,,0,
501336,,188 ST - 75 AV,,40.731552,-73.782173,,,0,
501337,,188 ST - 73 AV,,40.733028,-73.782875,,,0,
501338,,188 ST - 69 AV,,40.735607,-73.78392,,,0,
501339,,188 ST - 64 AV,,40.739025,-73.785461,,,0,
501340,,188 ST - HORACE HARDING EP,,40.740543,-73.786415,,,0,
501341,,HORACE HARDING EXP - 188 ST,,40.741035,-73.787315,,,0,
501342,,HORACE HARDING EXP - 185 ST,,40.740452,-73.789452,,,0,
501343,,HORACE HARDING EXP - 183 ST,,40.739834,-73.791695,,,0,
504031,,HORACE HARDING EXP - 175 PL,,40.739254,-73.7938,,,0,
501345,,HORACE HARDING EXP - FRESH MEADOW LA,,40.738567,-73.796829,,,0,
501346,,HORACE HARDING EXP - 170 ST,,40.738541,-73.7995,,,0,
501347,,HORACE HARDING EXP - 168 ST,,40.738609,-73.801292,,,0,
501348,,HORACE HARDING EXP - 164 ST,,40.738728,-73.804466,,,0,
501349,,HORACE HARDING EXP - 162 ST,,40.738876,-73.806976,,,0,
501350,,HORACE HARDING EXP - 160 ST,,40.738857,-73.808815,,,0,
501351,,HORACE HARDING EXP - PARSONS BL,,40.738937,-73.810799,,,0,
501352,,HORACE HARDING EXP - 156 ST,,40.73901,-73.812675,,,0,
501353,,KISSENA BL - HORACE HARDING EP,,40.739498,-73.81501,,,0,
501355,,KISSENA BL - 58 AV,,40.7425,-73.814354,,,0,
501356,,KISSENA BL - ROSE AV,,40.746422,-73.814362,,,0,
501357,,KISSENA BL - POPLAR AV,,40.747517,-73.815567,,,0,
501358,,KISSENA BL - NEGUNDO AV,,40.748543,-73.81675,,,0,
501360,,KISSENA BL - HOLLY AV,,40.750893,-73.819305,,,0,
501361,,KISSENA BL - 45 AV,,40.752541,-73.82103,,,0,
501362,,KISSENA BL - CHERRY AV,,40.754162,-73.823006,,,0,
501363,,KISSENA BL - ASH AV,,40.755127,-73.82415,,,0,
501364,,KISSENA BL - MAPLE AV,,40.756348,-73.825638,,,0,
501365,,KISSENA BL - SANFORD AV,,40.757259,-73.827156,,,0,
505227,,39 AV - MAIN ST,,40.760296,-73.830627,,,0,
904912,,38 AV - PRINCE ST,,40.760288,-73.832062,,,0,
904913,,38 AV - PRINCE ST,,40.760296,-73.832047,,,0,
501368,,MAIN ST - ROOSEVELT AV,,40.759644,-73.830299,,,0,
501369,,KISSENA BL - MAIN ST,,40.758125,-73.829056,,,0,
501370,,KISSENA BL - SANFORD AV,,40.756908,-73.826851,,,0,
501371,,KISSENA BL - FRANKLIN AV,,40.755157,-73.824455,,,0,
501372,,KISSENA BL - BEECH AV,,40.754383,-73.82354,,,0,
501373,,KISSENA BL - ELDER AV,,40.752857,-73.821724,,,0,
501374,,KISSENA BL - 45 AV,,40.751942,-73.820663,,,0,
504081,,KISSENA BL - HOLLY AV,,40.750904,-73.819542,,,0,
501377,,KISSENA BL - MULBERRY AV,,40.748482,-73.81691,,,0,
501378,,KISSENA BL - OAK AV,,40.747482,-73.815796,,,0,
501379,,KISSENA BL - ROSE AV,,40.746159,-73.814316,,,0,
501380,,KISSENA BL - BOOTH MEMORIAL,,40.742706,-73.814491,,,0,
501382,,KISSENA BL - 60 AV,,40.739651,-73.815224,,,0,
501383,,HORACE HARDING EXP - KISSENA BL,,40.738392,-73.813362,,,0,
501384,,HORACE HARDING EXP - 156 ST,,40.738327,-73.811897,,,0,
501385,,HORACE HARDING EXP - PARSONS BL,,40.738258,-73.809967,,,0,
501386,,HORACE HARDING EXP - 160 ST,,40.73819,-73.808067,,,0,
501387,,HORACE HARDING EXP - 162 ST,,40.738117,-73.806206,,,0,
501388,,HORACE HARDING EXP - 164 ST,,40.738037,-73.804138,,,0,
501389,,HORACE HARDING EXP - 166 ST,,40.737999,-73.80233,,,0,
501390,,HORACE HARDING EXP - 168 ST,,40.737934,-73.800529,,,0,
501391,,HORACE HARDING EXP - 170 ST,,40.737869,-73.798721,,,0,
501392,,HORACE HARDING EXP - 172 ST,,40.737797,-73.796921,,,0,
501393,,HORACE HARDING EXP - 64 AV,,40.738171,-73.79528,,,0,
501394,,HORACE HARDING EXP - UTOPIA PY,,40.738979,-73.792328,,,0,
501395,,HORACE HARDING EXP - 183 ST,,40.739452,-73.790619,,,0,
501396,,HORACE HARDING EXP - 186 ST,,40.740177,-73.787971,,,0,
501397,,188 ST - HORACE HARDING EXP,,40.740276,-73.786552,,,0,
501398,,188 ST - 64 AV,,40.738735,-73.785957,,,0,
501399,,188 ST - 186 LA #1,,40.736221,-73.784653,,,0,
501400,,188 ST - 186 LA #2,,40.734085,-73.783585,,,0,
501401,,188 ST - 73 AV,,40.732777,-73.782967,,,0,
501402,,188 ST - 75 AV,,40.730934,-73.782089,,,0,
501403,,188 ST - UNION TP,,40.729336,-73.781334,,,0,
501404,,188 ST - 80 RD,,40.728081,-73.780746,,,0,
501405,,188 ST - PERTH RD,,40.726089,-73.7798,,,0,
501406,,188 ST - MIDLAND PY,,40.724628,-73.778976,,,0,
501407,,188 ST - AVON RD,,40.722973,-73.777962,,,0,
501408,,188 ST - GRAND CENTRAL PY,,40.721252,-73.776642,,,0,
501409,,188 ST - HENLEY RD,,40.718395,-73.775246,,,0,
501410,,188 ST - WEXFORD TER,,40.715519,-73.773872,,,0,
503273,,MERRICK BL - 90 AV,,40.707237,-73.794998,,,0,
804061,,MERRICK BL - ARCHER AV,,40.704876,-73.793282,,,0,
505051,,UTOPIA PKY - 59 AV,,40.739941,-73.792999,,,0,
504040,,174 ST - 64 AV,,40.737774,-73.794853,,,0,
505022,,COLLEGE PT BL - 15 AV,,40.784073,-73.845894,,,0,
505023,,20 AV - COLLEGE PT BL,,40.781639,-73.845512,,,0,
505024,,20 AV - 124 ST,,40.781635,-73.843735,,,0,
505025,,20 AV - 128 ST,,40.781647,-73.840614,,,0,
505026,,20 AV - 131 ST,,40.781544,-73.837303,,,0,
505027,,20 AV - OPP WALDBAUMS,,40.781548,-73.834831,,,0,
505028,,20 AV - OPP TARGET,,40.781548,-73.83239,,,0,
505029,,20 AV - POSTAL FACILITY,,40.781567,-73.827492,,,0,
904012,,20 AV - WHITESTONE EXP,,40.781605,-73.826065,,,0,
503565,,PARSONS BL - 22 AV,,40.778763,-73.823738,,,0,
502246,,PARSONS BL - WILLETS PT BL,,40.777252,-73.824318,,,0,
501135,,UNION ST - 25 RD,,40.775517,-73.826065,,,0,
501136,,UNION ST - 26 AV,,40.77412,-73.826447,,,0,
501137,,UNION ST - 28 AV,,40.772697,-73.82663,,,0,
501138,,UNION ST - 31 RD,,40.770252,-73.826645,,,0,
501087,,MAIN ST - NORTHERN BL,,40.762627,-73.831902,,,0,
504993,,MAIN ST - 39 AV,,40.760376,-73.830704,,,0,
504989,,MAIN ST - ROOSEVELT AV,,40.760078,-73.830544,,,0,
502257,,MAIN ST - 41 AV,,40.757824,-73.829422,,,0,
502258,,MAIN ST - SANFORD AV,,40.75631,-73.828773,,,0,
502259,,MAIN ST - MAPLE AV,,40.755047,-73.82827,,,0,
502260,,MAIN ST - BLOSSOM AV,,40.752949,-73.827301,,,0,
502261,,MAIN ST - ELDER AV,,40.751003,-73.825951,,,0,
502263,,MAIN ST - 56 AV,,40.748009,-73.826141,,,0,
502264,,MAIN ST - BOOTH MEMORIAL AV,,40.746166,-73.826225,,,0,
502265,,MAIN ST - 58 AV,,40.745003,-73.826012,,,0,
503961,,MAIN ST - HORACE HARDING EY N,,40.742809,-73.825623,,,0,
502267,,MAIN ST - 62 AV,,40.741142,-73.825264,,,0,
502268,,MAIN ST - 63 AV,,40.739334,-73.824966,,,0,
503778,,MAIN ST - 63 AV,,40.736977,-73.825203,,,0,
505031,,MAIN ST - GRAVETT RD,,40.735226,-73.825371,,,0,
502271,,MAIN ST - MELBOURNE AV,,40.734066,-73.825462,,,0,
502272,,MAIN ST - 68 AV,,40.732998,-73.825142,,,0,
502273,,MAIN ST - 68 DR,,40.731689,-73.824471,,,0,
502274,,MAIN ST - JEWEL AV,,40.730083,-73.823647,,,0,
502275,,MAIN ST - 70 RD,,40.728703,-73.822937,,,0,
502276,,MAIN ST - 72 AV,,40.726372,-73.821739,,,0,
502277,,MAIN ST - 73 AV,,40.724739,-73.8209,,,0,
502278,,MAIN ST - 76 AV,,40.722332,-73.819656,,,0,
502279,,MAIN ST - 77 RD,,40.720345,-73.818634,,,0,
502280,,MAIN ST - 78 RD,,40.719032,-73.81797,,,0,
502281,,MAIN ST - UNION TP,,40.71777,-73.817322,,,0,
505006,,MAIN ST - GRAND CENTRAL PKY,,40.715294,-73.81649,,,0,
505007,,MAIN ST - 82 DR,,40.713181,-73.817062,,,0,
505008,,MAIN ST - 139 ST,,40.711079,-73.819,,,0,
505009,,QUEENS BL - MAIN ST,,40.708687,-73.818787,,,0,
505010,,QUEENS BL - 86 AV,,40.707294,-73.817581,,,0,
505032,,QUEENS BL - 87 AV,,40.70599,-73.816704,,,0,
505011,,HILLSIDE AV - 139 ST,,40.704414,-73.813995,,,0,
505174,,HILLSIDE AV - 144 ST,,40.705116,-73.811699,,,0,
502137,,SUTPHIN BL - HILLSIDE AV,,40.705379,-73.809608,,,0,
502138,,SUTPHIN BL - 90 AV,,40.703091,-73.808563,,,0,
502139,,SUTPHIN BL - JAMAICA AV,,40.701904,-73.808044,,,0,
504559,,ARCHER AV - SUTPHIN BL,,40.700626,-73.807228,,,0,
504004,,ARCHER AV - 149 ST,,40.701218,-73.804832,,,0,
504981,,ARCHER AV - 158 ST,,40.701847,-73.80201,,,0,
503933,,ARCHER AV - GUY R BREWER BL,,40.70332,-73.795593,,,0,
504985,,ARCHER AV - MERRICK BL,,40.704723,-73.791862,,,0,
502185,,MAIN ST - 39 AV,,40.760277,-73.830406,,,0,
999999,,MAIN ST - 38 AV,,40.760727,-73.830612,,,0,
500994,,MAIN ST - NORTHERN BL,,40.762703,-73.831673,,,0,
501096,,UNION ST - 28 AV,,40.773037,-73.826393,,,0,
501097,,UNION ST - 26 AV,,40.774849,-73.826057,,,0,
501098,,WILLETS PT BL - PARSONS BL,,40.776527,-73.824707,,,0,
503550,,PARSONS BL - 23 AV,,40.778389,-73.823723,,,0,
505004,,PARSONS BL - 21 AV,,40.780811,-73.822708,,,0,
505013,,20 AV - WHITESTONE EXP,,40.781773,-73.826126,,,0,
505092,,20 AV - BABIES R US,,40.781769,-73.828201,,,0,
505014,,20 AV - TARGET SUPERMARKET,,40.781761,-73.832634,,,0,
505015,,20 AV - WALDBAUMS,,40.781754,-73.835785,,,0,
505016,,20 AV - 131 ST,,40.781757,-73.837646,,,0,
505017,,20 AV - 127 ST,,40.781738,-73.841286,,,0,
505018,,20 AV - 124 ST,,40.781734,-73.844521,,,0,
505019,,COLLEGE PT BL - 20 AV,,40.781979,-73.845856,,,0,
505020,,COLLEGE PT BL - 18 AV,,40.78352,-73.845764,,,0,
505021,,15 AV - COLLEGE PT BL,,40.784149,-73.845505,,,0,
503980,,ARCHER AV - 165 ST,,40.703632,-73.795181,,,0,
503618,,ARCHER AV - PARSONS BL,,40.702446,-73.800423,,,0,
504557,,ARCHER AV - 150 ST,,40.701424,-73.804573,,,0,
504980,,ARCHER AV - SUTPHIN BL,,40.700676,-73.807571,,,0,
502030,,SUTPHIN BL - JAMAICA AV,,40.70216,-73.807976,,,0,
502031,,SUTPHIN BL - 89 AV,,40.703735,-73.808662,,,0,
502032,,SUTPHIN BL - HILLSIDE AV,,40.705601,-73.809532,,,0,
505175,,HILLSIDE AV - 144 ST,,40.705212,-73.811821,,,0,
504998,,HILLSIDE AV - 139 ST,,40.704525,-73.814384,,,0,
504999,,QUEENS BL - 87 AV,,40.706776,-73.81675,,,0,
505000,,QUEENS BL - 86 AV,,40.708065,-73.817635,,,0,
505033,,MAIN ST - MANTON ST,,40.709949,-73.818932,,,0,
505002,,MAIN ST - 84 RD,,40.712864,-73.816971,,,0,
505003,,MAIN ST - COOLIDGE AV,,40.715244,-73.816223,,,0,
502157,,MAIN ST - UNION TP,,40.717564,-73.816925,,,0,
502158,,MAIN ST - 78 RD,,40.719692,-73.818024,,,0,
502159,,MAIN ST - 77 RD,,40.721016,-73.818703,,,0,
503075,,MAIN ST - 76 AV,,40.722988,-73.819717,,,0,
502163,,MAIN ST - 73 AV,,40.72501,-73.820747,,,0,
502164,,MAIN ST - 72 AV,,40.727024,-73.821785,,,0,
502165,,MAIN ST - 71 AV,,40.72834,-73.822464,,,0,
502166,,MAIN ST - JEWEL AV,,40.729939,-73.82328,,,0,
502168,,MAIN ST - 68 DR,,40.732304,-73.824501,,,0,
502169,,MAIN ST - MELBOURNE AV,,40.733963,-73.825188,,,0,
502171,,MAIN ST - CUNY LAW SCHOOL,,40.737282,-73.824905,,,0,
502172,,MAIN ST - 146 ST,,40.74004,-73.824829,,,0,
502173,,MAIN ST - 61 RD,,40.741287,-73.825066,,,0,
904079,,MAIN ST - HORACE HARDING EXPY,,40.742958,-73.825417,,,0,
502174,,MAIN ST - 60 AV,,40.743034,-73.825447,,,0,
502175,,MAIN ST - 58 RD,,40.744846,-73.825745,,,0,
502176,,MAIN ST - BOOTH MEMORIAL AV,,40.746407,-73.826073,,,0,
502179,,MAIN ST - ELDER AV,,40.751404,-73.825844,,,0,
502180,,MAIN ST - CHERRY AV,,40.7528,-73.826958,,,0,
502181,,MAIN ST - FRANKLIN AV,,40.754608,-73.82785,,,0,
502182,,MAIN ST - MAPLE AV,,40.75573,-73.8283,,,0,
502183,,MAIN ST - SANFORD AV,,40.757015,-73.828812,,,0,
502184,,MAIN ST - KISSENA BL,,40.758125,-73.829308,,,0,
502462,,15 AV - COLLEGE PT BL,,40.78421,-73.84536,,,0,
505040,,15 AV - 124 ST,,40.784554,-73.843575,,,0,
502464,,15 AV - 127 ST,,40.785069,-73.841362,,,0,
502465,,14 AV - 130 ST,,40.785748,-73.838593,,,0,
502466,,14 AV - 132 ST,,40.786209,-73.83577,,,0,
502467,,14 AV - 135 ST,,40.786106,-73.833763,,,0,
505039,,14 AV - 137 ST,,40.786133,-73.831467,,,0,
505038,,14 AV - 141 ST,,40.786545,-73.82785,,,0,
502471,,14 AV - 143 ST,,40.786587,-73.826408,,,0,
502434,,PARSONS BL - 14 AV,,40.786503,-73.822296,,,0,
502241,,PARSONS BL - 17 RD,,40.784172,-73.821396,,,0,
505037,,PARSONS BL - 20 AV,,40.782059,-73.822052,,,0,
503551,,PARSONS BL - 20 AV,,40.782021,-73.821899,,,0,
503552,,PARSONS BL - 17 AV,,40.784317,-73.821251,,,0,
804024,,PARSONS BL - 14 AV,,40.786781,-73.822243,,,0,
505041,,14 AV - 143 ST,,40.78669,-73.826828,,,0,
505042,,14 AV - 142 ST,,40.78664,-73.827675,,,0,
505043,,14 AV - 139 ST,,40.78635,-73.830345,,,0,
502454,,14 AV - 136 ST,,40.786167,-73.833153,,,0,
505095,,14 AV - 132 ST,,40.786362,-73.836174,,,0,
505044,,14 AV - 130 ST,,40.785809,-73.838699,,,0,
505045,,14 AV - 128 ST,,40.785339,-73.840607,,,0,
502459,,14 AV - 124 ST,,40.785374,-73.843796,,,0,
502460,,14 AV - 123 ST,,40.785446,-73.845619,,,0,
504029,,HOLLIS CT BL - FRANCIS LEWIS BL,,40.745022,-73.777512,,,0,
501554,,HOLLIS CT BL - 56 AV,,40.746655,-73.780495,,,0,
501555,,HOLLIS CT BL - WEEKS LA,,40.748009,-73.782806,,,0,
501556,,HOLLIS CT BL - 50 AV,,40.748829,-73.784073,,,0,
501557,,HOLLIS CT BL - 194 ST,,40.750362,-73.786446,,,0,
503208,,HOLLIS CT BL - 47 AV,,40.751522,-73.788216,,,0,
501560,,HOLLIS CT BL - 190 ST,,40.752415,-73.78994,,,0,
501561,,46 AV - UTOPIA PY,,40.753273,-73.792862,,,0,
501562,,46 AV - AUBURNDALE LA,,40.753624,-73.794464,,,0,
501563,,46 AV - 171 ST,,40.753857,-73.796768,,,0,
501564,,46 AV - 169 ST,,40.753918,-73.798645,,,0,
501565,,46 AV - 167 ST,,40.753811,-73.800552,,,0,
501566,,46 AV - 164 ST,,40.753761,-73.802864,,,0,
504034,,46 AV - 163 ST,,40.753777,-73.804359,,,0,
501568,,46 AV - 160 ST,,40.753956,-73.80661,,,0,
501569,,46 AV - 158 ST,,40.754143,-73.809006,,,0,
501570,,46 AV - 156 ST,,40.754265,-73.810883,,,0,
501571,,46 AV - 149 ST,,40.754261,-73.812103,,,0,
904015,,46 AV - PARSONS BL,,40.754257,-73.813232,,,0,
501573,,PARSONS BL - 45 AV,,40.755375,-73.815132,,,0,
501574,,PARSONS BL - CHERRY AV,,40.756973,-73.817612,,,0,
501575,,PARSONS BL - BEECH AV,,40.757755,-73.818825,,,0,
504994,,ROOSEVELT AV - UNION ST,,40.760113,-73.827736,,,0,
503074,,PARSONS BL - ASH AV,,40.757713,-73.81897,,,0,
501530,,PARSONS BL - CHERRY AV,,40.756847,-73.817635,,,0,
501531,,PARSONS BL - ELM AV,,40.755978,-73.816292,,,0,
501532,,PARSONS BL - HAWTHORNE AV,,40.754738,-73.814377,,,0,
501533,,46 AV - PARSONS BL,,40.75415,-73.81295,,,0,
501534,,46 AV - 156 ST,,40.754124,-73.810112,,,0,
501535,,46 AV - 158 ST,,40.754013,-73.808739,,,0,
501536,,46 AV - 160 ST,,40.75386,-73.806854,,,0,
501537,,46 AV - 162 ST,,40.753716,-73.805023,,,0,
501538,,46 AV - 164 ST,,40.753632,-73.803093,,,0,
501539,,46 AV - 166 ST,,40.753677,-73.801216,,,0,
501540,,46 AV - 168 ST,,40.753777,-73.799324,,,0,
501541,,46 AV - 170 ST,,40.753822,-73.797394,,,0,
501542,,46 AV - AUBURNDALE LA,,40.753441,-73.794197,,,0,
501543,,46 AV - UTOPIA PY,,40.752857,-73.791878,,,0,
501544,,HOLLIS CT BL - 190 ST,,40.752304,-73.789963,,,0,
501545,,HOLLIS CT BL - 47 AV,,40.752087,-73.78936,,,0,
503207,,HOLLIS CT BL - 48 AV,,40.750187,-73.786461,,,0,
501548,,HOLLIS CT BL - 195 ST,,40.748631,-73.784096,,,0,
501549,,HOLLIS CT BL - 53 AV,,40.747704,-73.782631,,,0,
501550,,HOLLIS CT BL - 56 AV,,40.74646,-73.780441,,,0,
501551,,HOLLIS CT BL - 199 ST,,40.745499,-73.778687,,,0,
502762,,FRANCIS LEWIS BL - 58 AV,,40.745171,-73.776779,,,0,
502256,,MAIN ST - 39 AV,,40.75993,-73.830437,,,0,
501590,,HOLLY AV - KISSENA BL,,40.750797,-73.818748,,,0,
501591,,HOLLY AV - ROBINSON ST,,40.751953,-73.816963,,,0,
501592,,HOLLY AV - SMART ST,,40.752838,-73.815613,,,0,
501593,,HOLLY AV - PARSONS BL,,40.754147,-73.813591,,,0,
501605,,47 AV - 193 ST,,40.751778,-73.787979,,,0,
501606,,47 AV - 195 ST,,40.752483,-73.786034,,,0,
503566,,47 AV - 197 ST,,40.752838,-73.78318,,,0,
501608,,47 AV - FRANCIS LEWIS BL,,40.753288,-73.780334,,,0,
501610,,ROCKY HILL RD - 202 ST,,40.753353,-73.778549,,,0,
501611,,ROCKY HILL RD - 203 ST,,40.753216,-73.777145,,,0,
501612,,48 AV - 206 ST,,40.753681,-73.774109,,,0,
501613,,48 AV - 208 ST,,40.75433,-73.772385,,,0,
505065,,48 AV - 211 ST,,40.754955,-73.770027,,,0,
504444,,48 AV - BELL BL,,40.755577,-73.767349,,,0,
501617,,48 AV - 215 ST,,40.755733,-73.765709,,,0,
501618,,216 ST - 50 AV,,40.754276,-73.764137,,,0,
501619,,216 ST - LUKE PL,,40.752399,-73.763847,,,0,
501620,,LUKE PL - 218 ST,,40.751793,-73.761772,,,0,
501621,,56 AV - 220 ST,,40.752159,-73.759758,,,0,
501666,,SPRINGFIELD BL - 58 AV,,40.75045,-73.75766,,,0,
501623,,SPRINGFIELD BL - HORACE HARDING EP,,40.749634,-73.757141,,,0,
501624,,SPRINGFIELD BL - HORACE HARDING EP,,40.748764,-73.756645,,,0,
501625,,SPRINGFIELD BL - 64 AV,,40.74741,-73.755951,,,0,
501626,,SPRINGFIELD BL - 67 AV,,40.745262,-73.75489,,,0,
501627,,SPRINGFIELD BL - 73 AV,,40.742496,-73.753616,,,0,
501628,,SPRINGFIELD BL - 75 AV,,40.740215,-73.751564,,,0,
501629,,SPRINGFIELD BL - 76 AV,,40.739353,-73.749725,,,0,
501630,,SPRINGFIELD BL - 77 AV,,40.738186,-73.74868,,,0,
501631,,SPRINGFIELD BL - KINGSBURY AV,,40.73719,-73.747772,,,0,
501632,,SPRINGFIELD BL - UNION TP,,40.735405,-73.746483,,,0,
501633,,SPRINGFIELD BL - 223 ST,,40.733562,-73.74649,,,0,
501634,,SPRINGFIELD BL - SAWYER AV,,40.730923,-73.746101,,,0,
501635,,SPRINGFIELD BL - HILLSIDE AV,,40.729965,-73.74498,,,0,
500304,,SPRINGFIELD BL - AMBOY LA,,40.717762,-73.735481,,,0,
500305,,SPRINGFIELD BL - 99 AV,,40.715351,-73.735641,,,0,
500309,,SPRINGFIELD BL - 107 AV,,40.710285,-73.737556,,,0,
500310,,SPRINGFIELD BL - 109 AV,,40.709099,-73.738205,,,0,
500312,,SPRINGFIELD BL - 111 RD,,40.705688,-73.739754,,,0,
500313,,SPRINGFIELD BL - 112 RD,,40.704426,-73.740387,,,0,
904097,,SPRINGFIELD BL - MURDOCK AV,,40.703335,-73.740623,,,0,
505134,,SPRINGFIELD BL - 115 AV,,40.700924,-73.74173,,,0,
505135,,SPRINGFIELD BL - 116 RD,,40.696873,-73.743507,,,0,
505136,,FRANCIS LEWIS BL - SPRINGFIELD BL,,40.692932,-73.744743,,,0,
500492,,120 AV - FRANCIS LEWIS BL,,40.690521,-73.743492,,,0,
500493,,120 AV - 217 ST,,40.691166,-73.745621,,,0,
804044,,SPRINGFIELD BL - 119 AV,,40.692505,-73.745125,,,0,
505137,,SPRINGFIELD BL - 119 AV,,40.69244,-73.745178,,,0,
505138,,SPRINGFIELD BL - 118 AV,,40.694824,-73.743935,,,0,
505139,,SPRINGFIELD BL - LINDEN BL,,40.697536,-73.743027,,,0,
505140,,SPRINGFIELD BL - 116 AV,,40.698193,-73.74279,,,0,
505141,,SPRINGFIELD BL - 115 RD,,40.699898,-73.742012,,,0,
505154,,SPRINGFIELD BL - 114 AV,,40.702274,-73.740799,,,0,
904098,,SPRINGFIELD BL - MURDOCK AV,,40.703564,-73.740311,,,0,
500290,,SPRINGFIELD BL - 112 RD,,40.705185,-73.739723,,,0,
500291,,SPRINGFIELD BL - 111 RD,,40.706207,-73.739326,,,0,
505143,,SPRINGFIELD BL - 109 AV,,40.708729,-73.738182,,,0,
500293,,SPRINGFIELD BL - 107 AV,,40.710426,-73.737267,,,0,
500294,,SPRINGFIELD BL - 104 AV,,40.712383,-73.736137,,,0,
500296,,SPRINGFIELD BL - 100 AV,,40.715252,-73.735489,,,0,
500297,,SPRINGFIELD BL - 98 AV,,40.716656,-73.735374,,,0,
501654,,SPRINGFIELD BL - HILLSIDE AV,,40.730236,-73.745003,,,0,
501655,,SPRINGFIELD BL - SAWYER AV,,40.731174,-73.746162,,,0,
501656,,SPRINGFIELD BL - GRAND CENTRAL PKWY,,40.734322,-73.745911,,,0,
501657,,SPRINGFIELD BL - UNION TP,,40.73616,-73.74675,,,0,
501658,,SPRINGFIELD BL - KINGSBURY AV,,40.737759,-73.748001,,,0,
501659,,SPRINGFIELD BL - 76 AV,,40.739944,-73.750183,,,0,
501660,,SPRINGFIELD BL - 73 AV,,40.742264,-73.753304,,,0,
501661,,SPRINGFIELD BL - 69 AV,,40.743408,-73.75383,,,0,
501662,,SPRINGFIELD BL - 67 AV,,40.745174,-73.754631,,,0,
501663,,SPRINGFIELD BL - 64 AV,,40.747662,-73.755867,,,0,
501664,,SPRINGFIELD BL - HORACE HARDING EXP S,,40.749008,-73.756554,,,0,
501665,,SPRINGFIELD BL - HORACE HARDING EP N,,40.749882,-73.757057,,,0,
501622,,SPRINGFIELD BL - 58 AV,,40.751053,-73.757988,,,0,
501667,,SPRINGFIELD BL - 56 AV,,40.752354,-73.759148,,,0,
501668,,LUKE PL - 217 ST,,40.751953,-73.762627,,,0,
501669,,216 ST - 51 AV,,40.753574,-73.76387,,,0,
501670,,216 ST - 49 AV,,40.755177,-73.764145,,,0,
501671,,48 AV - 216 ST,,40.755985,-73.764717,,,0,
501672,,48 AV - 215 ST,,40.755817,-73.76606,,,0,
501673,,48 AV - BELL BL,,40.755623,-73.7677,,,0,
501674,,48 AV - 212 ST,,40.755142,-73.769798,,,0,
501675,,48 AV - OCEANIA ST,,40.754513,-73.772293,,,0,
504428,,48 AV - 207 ST,,40.753956,-73.773804,,,0,
501678,,ROCKY HILL RD - 203 ST,,40.753273,-73.776451,,,0,
501679,,ROCKY HILL RD - 202 ST,,40.75349,-73.778542,,,0,
501680,,47 AV - FRANCIS LEWIS BL,,40.753311,-73.780991,,,0,
501681,,47 AV - 197 ST,,40.752949,-73.783386,,,0,
501682,,47 AV - 195 ST,,40.752609,-73.785942,,,0,
501683,,47 AV - 194 ST,,40.752403,-73.786842,,,0,
501684,,47 AV - 193 ST,,40.751919,-73.788002,,,0,
501572,,46 AV - PARSONS BL,,40.754253,-73.813332,,,0,
501698,,HOLLY AV - BURLING ST,,40.752979,-73.81559,,,0,
501699,,HOLLY AV - BOWNE ST,,40.752079,-73.816971,,,0,
904018,,ROOSEVELT AV - MAIN ST,,40.759541,-73.830505,,,0,
804027,,56 AV - 223 ST,,40.754135,-73.757904,,,0,
804026,,56 AV - 223 ST,,40.753857,-73.757706,,,0,
504053,,58 AV - SPRINGFIELD BL,,40.751041,-73.757446,,,0,
502102,,HILLSIDE AV - 231 ST,,40.733097,-73.738998,,,0,
504487,,39 AV - 138 ST,,40.760971,-73.827057,,,0,
501722,,CROCHERON AV - 162 ST,,40.76244,-73.803818,,,0,
501723,,CROCHERON AV - 164 ST,,40.762718,-73.801407,,,0,
501724,,CROCHERON AV - 166 ST,,40.762836,-73.799477,,,0,
501725,,CROCHERON AV - 168 ST,,40.762695,-73.7976,,,0,
501726,,CROCHERON AV - 171 ST,,40.762867,-73.794746,,,0,
501727,,CROCHERON AV - UTOPIA PY,,40.763134,-73.792816,,,0,
501728,,CROCHERON AV - 192 ST,,40.763664,-73.789833,,,0,
501730,,FRANCIS LEWIS BL - 35 AV,,40.76458,-73.788376,,,0,
501731,,FRANCIS LEWIS BL - 34 AV,,40.76646,-73.789696,,,0,
501732,,FRANCIS LEWIS BL - 33 AV,,40.767696,-73.790649,,,0,
501733,,FRANCIS LEWIS BL - 32 RD,,40.768616,-73.791451,,,0,
505053,,32 AV - 200 ST,,40.769615,-73.789398,,,0,
501735,,32 AV - 202 ST,,40.770283,-73.787163,,,0,
501736,,32 AV - 205 ST,,40.771061,-73.784531,,,0,
501737,,32 AV - 208 ST,,40.771828,-73.781952,,,0,
501738,,CORPORAL KENNEDY ST - 32 AV,,40.772625,-73.780617,,,0,
501739,,CORPORAL KENNEDY ST - 28 RD,,40.774803,-73.781525,,,0,
503720,,CORPORAL KENNEDY ST - 26 AV,,40.776978,-73.782852,,,0,
501741,,CORPORAL KENNEDY ST - 23 AV,,40.779049,-73.783051,,,0,
501742,,18 AV - 211 ST,,40.781803,-73.783562,,,0,
501743,,211 ST - 18 AV,,40.781731,-73.781792,,,0,
501744,,211 ST - 23 AV,,40.779938,-73.780724,,,0,
503077,,23 AV - 212 ST,,40.78125,-73.778214,,,0,
503828,,213 PL - BAY TER CT,,40.780872,-73.777191,,,0,
904019,,23 AV - BELL BL,,40.782295,-73.777031,,,0,
503248,,23 AV - BELL BL,,40.782291,-73.777061,,,0,
503149,,211 ST - 23 AV,,40.780262,-73.780876,,,0,
503148,,211 ST - 18 AV,,40.781929,-73.781586,,,0,
503147,,18 AV - CORPORAL KENNEDY ST,,40.781864,-73.783867,,,0,
503585,,CORPORAL KENNEDY ST - 23 AV,,40.778824,-73.783028,,,0,
503721,,CORPORAL KENNEDY ST - 26 AV,,40.776752,-73.782951,,,0,
501750,,CORPORAL KENNEDY ST - 28 AV,,40.774788,-73.781746,,,0,
504482,,CORPORAL KENNEDY ST - 32 AV,,40.772369,-73.780708,,,0,
504446,,32 AV - CLEARVIEW EP SR E,,40.771595,-73.783157,,,0,
504447,,32 AV - CLEARVIEW EP SR W,,40.771214,-73.784439,,,0,
501754,,32 AV - 204 ST,,40.770836,-73.785698,,,0,
501755,,32 AV - 201 ST,,40.769901,-73.788834,,,0,
501756,,32 AV - JORDAN ST,,40.769451,-73.790314,,,0,
501757,,FRANCIS LEWIS BL - 32 AV,,40.768639,-73.791824,,,0,
501758,,FRANCIS LEWIS BL - 33 AV,,40.767025,-73.790436,,,0,
501759,,FRANCIS LEWIS BL - 192 ST,,40.765827,-73.789581,,,0,
501760,,FRANCIS LEWIS BL - 35 AV,,40.764412,-73.788635,,,0,
501761,,CROCHERON AV - 192 ST,,40.763626,-73.790657,,,0,
501762,,CROCHERON AV - UTOPIA PY,,40.763134,-73.793701,,,0,
501763,,CROCHERON AV - 171 ST,,40.762882,-73.795532,,,0,
501764,,CROCHERON AV - 169 ST,,40.762829,-73.796928,,,0,
501765,,CROCHERON AV - 168 ST,,40.762859,-73.798386,,,0,
501766,,CROCHERON AV - 166 ST,,40.763012,-73.800255,,,0,
501767,,CROCHERON AV - 164 ST,,40.76268,-73.802155,,,0,
503976,,ARCHER AV - 168 ST,,40.704735,-73.79174,,,0,
503283,,JAMAICA AV - 168 ST,,40.706318,-73.792244,,,0,
501422,,170 ST - JAMAICA AV,,40.707561,-73.789856,,,0,
500087,,HILLSIDE AV - HOMELAWN ST,,40.710823,-73.792923,,,0,
501424,,HOMELAWN ST - HIGHLAND AV,,40.712856,-73.793243,,,0,
504436,,HOMELAWN ST - GOTHIC DR,,40.714359,-73.793396,,,0,
501426,,HOMELAWN ST - ASPEN PL,,40.715946,-73.792435,,,0,
501427,,HOMELAWN ST - CROYDON RD,,40.717712,-73.792076,,,0,
501428,,HOMELAWN ST - CHARLECOTE RIDGE,,40.718559,-73.791298,,,0,
504077,,HOMELAWN ST - GRAND CENTRAL PY,,40.719593,-73.790497,,,0,
501430,,UTOPIA PY - KILDARE RD,,40.721695,-73.790169,,,0,
501431,,UTOPIA PY - 80 DR,,40.724506,-73.790947,,,0,
504424,,UTOPIA PY - UNION TP,,40.725628,-73.791557,,,0,
501433,,UTOPIA PY - 76 AV,,40.727123,-73.792152,,,0,
501434,,UTOPIA PY - 75 AV,,40.728783,-73.792847,,,0,
501435,,UTOPIA PY - 73 AV,,40.730396,-73.793533,,,0,
501436,,UTOPIA PY - JEWEL AV,,40.73156,-73.793671,,,0,
501437,,UTOPIA PY - 69 AV,,40.733089,-73.79319,,,0,
501438,,UTOPIA PY - 67 AV,,40.735191,-73.793053,,,0,
501439,,UTOPIA PY - 65 AV,,40.736683,-73.792946,,,0,
501441,,UTOPIA PY - HORACE HARDING EXP,,40.7388,-73.792809,,,0,
501444,,HORACE HARDING EXP - 188 ST,,40.740688,-73.786102,,,0,
501445,,HORACE HARDING EXP - 190 ST,,40.74118,-73.784317,,,0,
501447,,HORACE HARDING EXP - 194 ST,,40.741905,-73.78167,,,0,
501448,,HORACE HARDING EXP - PECK AV,,40.742279,-73.780128,,,0,
501449,,HORACE HARDING EXP - FRANCIS LEWIS BL,,40.74292,-73.775795,,,0,
501450,,HORACE HARDING EXP - OCEANIA ST,,40.745594,-73.767181,,,0,
501451,,HORACE HARDING EXP - 211 ST,,40.746078,-73.765411,,,0,
501452,,HORACE HARDING EXP - 214 ST,,40.746807,-73.762756,,,0,
501453,,HORACE HARDING EXP - BELL BL,,40.747356,-73.760872,,,0,
501454,,HORACE HARDING EXP - 218 ST,,40.74802,-73.759232,,,0,
501455,,HORACE HARDING EXP - SPRINGFIELD BL,,40.748985,-73.756844,,,0,
501456,,HORACE HARDING EXP - 224 ST,,40.749851,-73.753357,,,0,
501457,,HORACE HARDING EXP - CLOVERDALE BL,,40.750343,-73.750694,,,0,
501458,,HORACE HARDING EXP - 230 ST,,40.75095,-73.748001,,,0,
504995,,HORACE HARDING EXP - 231 ST,,40.751171,-73.747116,,,0,
501460,,DOUGLASTON PY - 65 AV,,40.752968,-73.741455,,,0,
501461,,DOUGLASTON PY - 61 AV,,40.755611,-73.739388,,,0,
501462,,HORACE HARDING EXP - DOUGLASTON PY,,40.756908,-73.73877,,,0,
501463,,HORACE HARDING EXP - 244 ST,,40.757996,-73.736977,,,0,
501464,,HORACE HARDING EXP - 246 CR,,40.758804,-73.735657,,,0,
904069,,HORACE HARDING EXP - 246 PL,,40.759483,-73.734184,,,0,
501466,,HORACE HARDING EXP - MARATHON PY,,40.760471,-73.7313,,,0,
501467,,HORACE HARDING EXP - 251 ST,,40.761749,-73.729279,,,0,
501468,,HORACE HARDING EXP - 254 ST,,40.76326,-73.726273,,,0,
501470,,NASSAU BL - LITTLE NECK PY 1,,40.765076,-73.725037,,,0,
501471,,NASSAU BL - LITTLE NECK PY 2,,40.764969,-73.725113,,,0,
501472,,HORACE HARDING EXP - 254 ST,,40.763718,-73.727249,,,0,
501473,,HORACE HARDING EXP - 252 ST,,40.762829,-73.728882,,,0,
501474,,HORACE HARDING EXP - 251 PL,,40.761951,-73.730278,,,0,
501475,,HORACE HARDING EXP - MARATHON PY,,40.760746,-73.732567,,,0,
501476,,HORACE HARDING EXP - 248 ST,,40.759659,-73.735329,,,0,
501477,,HORACE HARDING EXP - DOUGLASTON PY,,40.757359,-73.739357,,,0,
501478,,DOUGLASTON PY - 61 AV,,40.755901,-73.739388,,,0,
501479,,DOUGLASTON PY - 65 AV,,40.752762,-73.741585,,,0,
501480,,W ALLEY RD - 233 ST,,40.751652,-73.74556,,,0,
501481,,HORACE HARDING EXP - E HAMPTON BL,,40.752148,-73.747543,,,0,
501482,,HORACE HARDING EXP - 229 ST,,40.751217,-73.749687,,,0,
501483,,HORACE HARDING EXP - CLOVERDALE BL,,40.750851,-73.751587,,,0,
501484,,HORACE HARDING EXP - SPRINGFIELD BL,,40.749481,-73.757454,,,0,
503143,,HORACE HARDING EXP - 218 ST,,40.74831,-73.760185,,,0,
501486,,HORACE HARDING EXP - BELL BL,,40.747681,-73.762047,,,0,
501487,,HORACE HARDING EXP - 213 ST,,40.746964,-73.764679,,,0,
501488,,HORACE HARDING EXP - 211 ST,,40.746479,-73.766426,,,0,
501489,,HORACE HARDING EXP - OCEANIA ST,,40.745964,-73.768311,,,0,
501490,,HORACE HARDING EXP - 207 ST,,40.745483,-73.770065,,,0,
501492,,HORACE HARDING EXP - 202 ST,,40.744255,-73.774536,,,0,
501493,,HORACE HARDING EXP - FRANCIS LEWIS BL,,40.743698,-73.776566,,,0,
503142,,HORACE HARDING EXP - 197 ST,,40.743172,-73.779167,,,0,
501496,,HORACE HARDING EXP - PECK AV,,40.742325,-73.782639,,,0,
503141,,HORACE HARDING EXP - 190 ST,,40.741558,-73.785423,,,0,
501501,,UTOPIA PY - HORACE HARDING EXP,,40.738514,-73.793098,,,0,
501502,,UTOPIA PY - 65 AV,,40.736027,-73.793266,,,0,
501503,,UTOPIA PY - 67 AV,,40.734161,-73.793388,,,0,
501504,,UTOPIA PY - 69 AV,,40.732784,-73.79348,,,0,
501505,,UTOPIA PY - JEWEL AV,,40.73093,-73.793976,,,0,
501506,,UTOPIA PY - 73 AV,,40.729694,-73.793518,,,0,
501507,,UTOPIA PY - 75 AV,,40.728107,-73.792847,,,0,
501508,,UTOPIA PY - 76 AV,,40.726807,-73.792297,,,0,
501509,,UTOPIA PY - UNION TP,,40.725914,-73.791924,,,0,
501510,,UTOPIA PY - 80 RD,,40.724979,-73.791527,,,0,
501511,,UTOPIA PKY - ST. JOHNS UNIVERSITY,,40.723064,-73.790504,,,0,
501512,,UTOPIA PKY - 82 AV,,40.721077,-73.790428,,,0,
501513,,UTOPIA PY - GRAND CENTRAL PY N,,40.719883,-73.790565,,,0,
501514,,HOMELAWN ST - 173 ST,,40.718475,-73.791672,,,0,
501516,,HOMELAWN ST - 84 RD,,40.715931,-73.792633,,,0,
501517,,HOMELAWN ST - GOTHIC DR,,40.714058,-73.793678,,,0,
501518,,HOMELAWN ST - HIGHLAND AV,,40.712666,-73.79332,,,0,
505046,,169 ST - HILLSIDE AV,,40.710991,-73.793343,,,0,
504540,,JAMAICA AV - MERRICK BL,,40.705936,-73.793854,,,0,
503953,,JAMAICA AV - 162 ST,,40.704224,-73.798172,,,0,
503932,,JAMAICA AV - PARSONS BL,,40.703278,-73.800682,,,0,
502145,,JAMAICA AV - 150 ST,,40.702229,-73.804329,,,0,
504001,,JAMAICA AV - SUTPHIN BL,,40.701828,-73.808395,,,0,
904095,,ARCHER AV - SUTPHIN PL,,40.700439,-73.808098,,,0,
504480,,ARCHER AV - SUTPHIN BL,,40.700489,-73.807884,,,0,
904075,,56 AV - 223 ST,,40.753666,-73.757088,,,0,
904076,,56 AV - 223 ST,,40.7537,-73.756973,,,0,
504052,,58 AV - SPRINGFIELD BL,,40.751129,-73.757111,,,0,
501491,,HORACE HARDING EXP - CLEARVIEW EP,,40.745102,-73.772827,,,0,
501878,,UTOPIA PY - BOOTH MEMORIAL AV,,40.740864,-73.792938,,,0,
503718,,JAMAICA AV - SUTPHIN BL,,40.701847,-73.808586,,,0,
504057,,MARATHON PY - 51 AV,,40.762661,-73.733757,,,0,
501804,,UTOPIA PY - 58 AV,,40.741627,-73.792587,,,0,
501805,,UTOPIA PY - 56 AV,,40.743366,-73.792511,,,0,
501806,,UTOPIA PY - 50 AV,,40.744995,-73.792397,,,0,
501807,,UTOPIA PY - UNDERHILL AV,,40.746643,-73.79229,,,0,
501808,,UTOPIA PY - 48 AV,,40.748833,-73.792152,,,0,
501809,,UTOPIA PY - 47 AV,,40.750793,-73.792023,,,0,
501810,,UTOPIA PY - BAGLEY AV,,40.751911,-73.792084,,,0,
501811,,UTOPIA PY - HOLLIS CT BL,,40.752876,-73.792213,,,0,
501825,,BELL BL - 46 AV,,40.758587,-73.768318,,,0,
503723,,BELL BL - 35 AV,,40.768875,-73.773636,,,0,
501832,,35 AV - 211 ST,,40.76857,-73.776123,,,0,
503155,,35 AV - CORPORAL KENNEDY ST,,40.768047,-73.778236,,,0,
503156,,CORPORAL KENNEDY ST - 34 RD,,40.768559,-73.778549,,,0,
503920,,CORPORAL KENNEDY ST - 33 AV,,40.77092,-73.779755,,,0,
501751,,CORPORAL KENNEDY ST - 32 AV,,40.772213,-73.780418,,,0,
804051,,FRANCIS LEWIS BL - 27 AV,,40.772594,-73.795013,,,0,
904061,,32 AV - FRANCIS LEWIS BL,,40.768913,-73.791763,,,0,
503921,,32 AV - CORPORAL KENNEDY ST,,40.77219,-73.780701,,,0,
501847,,CORPORAL KENNEDY ST - 33 AV,,40.770679,-73.779839,,,0,
501848,,CORPORAL KENNEDY ST - 35 AV,,40.768032,-73.778481,,,0,
501850,,35 AV - 212 ST,,40.768524,-73.775726,,,0,
501055,,BELL BL - 35 AV,,40.76862,-73.773689,,,0,
501857,,BELL BL - 46 AV,,40.757931,-73.768234,,,0,
940132,,ROCKY HILL RD - CLEARVIEW EP,,40.753284,-73.776596,,,0,
804064,,47 AV - 197 ST,,40.752937,-73.783401,,,0,
501871,,UTOPIA PY - 46 AV,,40.752701,-73.792442,,,0,
501872,,UTOPIA PY - 47 AV,,40.750183,-73.792328,,,0,
501873,,UTOPIA PY - FAIRCHILD AV,,40.748718,-73.792427,,,0,
501874,,UTOPIA PY - PIDGEON MEADOW RD,,40.747311,-73.792511,,,0,
501875,,UTOPIA PY - PECK AV,,40.745396,-73.792641,,,0,
501876,,UTOPIA PY - 50 AV,,40.744167,-73.792725,,,0,
501877,,UTOPIA PY - 56 AV,,40.742443,-73.792839,,,0,
501520,,169 ST - 89 AV,,40.709278,-73.792274,,,0,
503206,,169 ST - JAMAICA AV,,40.706989,-73.790947,,,0,
804084,,BOOTH MEMORIAL AV - UTOPIA PKWY,,40.741184,-73.793098,,,0,
400552,,W 32 ST - 7 AV,,40.749405,-73.99102,,,0,
403539,,W 32 ST - AV OF THE AMERICAS,,40.748379,-73.988594,,,0,
400555,,E 32 ST - 5 AV,,40.746986,-73.985374,,,0,
400353,,MADISON AV - E 32 ST,,40.746582,-73.983627,,,0,
400354,,MADISON AV - E 34 ST,,40.747864,-73.982697,,,0,
403456,,MADISON AV - E 38 ST,,40.750126,-73.981079,,,0,
403457,,MADISON AV - E 40 ST,,40.751591,-73.979996,,,0,
400561,,MADISON AV - E 42 ST,,40.752861,-73.979034,,,0,
400358,,MADISON AV - E 45 ST,,40.754818,-73.977631,,,0,
400359,,MADISON AV - E 47 ST,,40.756069,-73.976784,,,0,
400360,,MADISON AV - E 49 ST,,40.757355,-73.975761,,,0,
400361,,MADISON AV - E 52 ST,,40.759239,-73.974419,,,0,
400362,,MADISON AV - E 55 ST,,40.761143,-73.973038,,,0,
400363,,MADISON AV - E 57 ST,,40.762417,-73.972069,,,0,
402377,,E 59 ST - MADISON AV,,40.763374,-73.971161,,,0,
402378,,E 59 ST - PARK AV,,40.762695,-73.969635,,,0,
402379,,E 59 ST - LEXINGTON AV,,40.762085,-73.968086,,,0,
402380,,E 59 ST - 3 AV,,40.761375,-73.966476,,,0,
404302,,E 59 ST - 2 AV,,40.760571,-73.964561,,,0,
551614,,QUEENS PLAZA S - 28 ST,,40.749855,-73.939194,,,0,
503293,,QUEENS BL - SKILLMAN AV,,40.74577,-73.934296,,,0,
503295,,QUEENS BL - 35 ST,,40.744183,-73.929626,,,0,
503296,,QUEENS BL - 38 ST,,40.743866,-73.926895,,,0,
503298,,QUEENS BL - 41 ST,,40.743435,-73.923141,,,0,
503299,,QUEENS BL - 44 ST,,40.743114,-73.92041,,,0,
904147,,QUEENS BL - 46 ST,,40.742924,-73.918625,,,0,
503301,,ROOSEVELT AV - 49 ST,,40.743191,-73.915482,,,0,
503302,,ROOSEVELT AV - 51 ST,,40.743736,-73.913628,,,0,
503303,,ROOSEVELT AV - 53 ST,,40.744411,-73.911293,,,0,
503304,,ROOSEVELT AV - 56 ST,,40.745018,-73.908401,,,0,
503305,,ROOSEVELT AV - 58 ST,,40.745296,-73.906364,,,0,
503306,,ROOSEVELT AV - 61 ST,,40.74551,-73.903198,,,0,
503307,,ROOSEVELT AV - 63 ST,,40.74577,-73.900917,,,0,
503308,,ROOSEVELT AV - 65 PL,,40.745998,-73.898743,,,0,
503309,,ROOSEVELT AV - 69 ST,,40.746246,-73.896469,,,0,
503310,,ROOSEVELT AV - 72 ST,,40.746563,-73.893265,,,0,
505192,,ROOSEVELT AV - 74 ST,,40.746784,-73.891266,,,0,
503311,,ROOSEVELT AV - 76 ST,,40.746975,-73.889458,,,0,
503312,,ROOSEVELT AV - 78 ST,,40.747166,-73.887642,,,0,
503313,,ROOSEVELT AV - 80 ST,,40.747372,-73.885544,,,0,
503578,,81 ST - ROOSEVELT AV,,40.74786,-73.884789,,,0,
503579,,81 ST - 37 AV,,40.749935,-73.885162,,,0,
503580,,81 ST - 35 AV,,40.751587,-73.885483,,,0,
503581,,81 ST - 34 AV,,40.75396,-73.88591,,,0,
503582,,81 ST - NORTHERN BL,,40.755322,-73.886139,,,0,
503574,,82 ST - NORTHERN BL,,40.755196,-73.885406,,,0,
503575,,82 ST - 34 AV,,40.75338,-73.885101,,,0,
503576,,82 ST - 35 AV,,40.751465,-73.88472,,,0,
503577,,82 ST - 37 AV,,40.749836,-73.88443,,,0,
504090,,ROOSEVELT AV - 82 ST,,40.747673,-73.884193,,,0,
503316,,ROOSEVELT AV - 80 ST,,40.747463,-73.886215,,,0,
503317,,ROOSEVELT AV - 78 ST,,40.747299,-73.887901,,,0,
503318,,ROOSEVELT AV - 76 ST,,40.747059,-73.889984,,,0,
503319,,ROOSEVELT AV - 74 ST,,40.746914,-73.891609,,,0,
503320,,ROOSEVELT AV - 72 ST,,40.746693,-73.893814,,,0,
503321,,ROOSEVELT AV - 69 ST,,40.746349,-73.896774,,,0,
503322,,ROOSEVELT AV - 67 ST,,40.746216,-73.898056,,,0,
503323,,ROOSEVELT AV - 64 ST,,40.745964,-73.900452,,,0,
503324,,ROOSEVELT AV - 61 ST,,40.745697,-73.903191,,,0,
503325,,ROOSEVELT AV - 58 ST,,40.745453,-73.906441,,,0,
503326,,ROOSEVELT AV - SKILLMAN AV,,40.745144,-73.90892,,,0,
503327,,ROOSEVELT AV - 54 ST,,40.744728,-73.910927,,,0,
503328,,ROOSEVELT AV - 51 ST,,40.743721,-73.9142,,,0,
505097,,QUEENS BL - 48 ST,,40.743214,-73.916977,,,0,
503331,,QUEENS BL - 45 ST,,40.743553,-73.919983,,,0,
503333,,QUEENS BL - 41 ST,,40.743984,-73.923706,,,0,
503335,,QUEENS BL - 38 ST,,40.744411,-73.927383,,,0,
503336,,QUEENS BL - 35 ST,,40.744732,-73.930183,,,0,
503337,,QUEENS BL - 33 ST,,40.744946,-73.932045,,,0,
503338,,QUEENS BL - SKILLMAN AV,,40.745953,-73.934166,,,0,
504458,,QUEENS BL - QUEENS PZ E,,40.748856,-73.937149,,,0,
904915,,QUEENS PLZ N - 29 ST,,40.750057,-73.938042,,,0,
503341,,QUEENS PLZ N - 27 ST,,40.750813,-73.939758,,,0,
402441,,E 60 ST - 2 AV,,40.761513,-73.964417,,,0,
402443,,E 60 ST - LEXINGTON AV,,40.762985,-73.967796,,,0,
402444,,E 60 ST - PARK AV,,40.763737,-73.969612,,,0,
403593,,E 60 ST - MADISON AV,,40.764442,-73.971298,,,0,
402446,,5 AV - W 58 ST,,40.763496,-73.973709,,,0,
403266,,5 AV - W 55 ST,,40.761799,-73.974937,,,0,
400514,,5 AV - W 52 ST,,40.759926,-73.976303,,,0,
400515,,5 AV - W 49 ST,,40.75803,-73.977676,,,0,
400516,,5 AV - W 46 ST,,40.756157,-73.97905,,,0,
405023,,5 AV - W 44 ST,,40.754654,-73.980164,,,0,
400518,,5 AV - W 41 ST,,40.753021,-73.981346,,,0,
400519,,5 AV - W 38 ST,,40.751068,-73.982765,,,0,
400520,,5 AV - W 35 ST,,40.749237,-73.9841,,,0,
401844,,W 34 ST - 5 AV,,40.748672,-73.984909,,,0,
400716,,W 34 ST - BROADWAY,,40.749981,-73.988052,,,0,
903085,,W 32 ST - 7 AV,,40.749435,-73.991081,,,0,
504421,,165 ST TERM - 165 ST TERM BAY 6,,40.707565,-73.795509,,,0,
501908,,HILLSIDE AV - 180 ST,,40.712898,-73.782524,,,0,
505096,,HILLSIDE AV - 187 PL,,40.71479,-73.774483,,,0,
501924,,212 PL - 89 AV,,40.723705,-73.751709,,,0,
501925,,212 PL - 90 AV,,40.721752,-73.749344,,,0,
501926,,212 PL - 91 AV,,40.720722,-73.748276,,,0,
501927,,212 PL - 93 AV,,40.719021,-73.74736,,,0,
501928,,212 PL - 94 AV,,40.717232,-73.746384,,,0,
501929,,212 PL - JAMAICA AV,,40.716072,-73.745773,,,0,
501930,,JAMAICA AV - 213 ST,,40.71603,-73.744865,,,0,
501931,,JAMAICA AV - 214 PL,,40.716461,-73.743011,,,0,
501932,,JAMAICA AV - 215 ST,,40.71698,-73.740799,,,0,
501933,,JAMAICA AV - 216 ST,,40.717522,-73.738419,,,0,
501934,,JAMAICA AV - 218 ST,,40.717827,-73.736908,,,0,
503058,,JAMAICA AV - SPRINGFIELD BL,,40.718212,-73.735718,,,0,
501936,,JAMAICA AV - 220 ST,,40.718952,-73.734108,,,0,
501937,,JAMAICA AV - 222 ST,,40.720535,-73.731934,,,0,
501938,,JAMAICA AV - 224 ST,,40.72168,-73.730721,,,0,
501939,,JAMAICA AV - 240 ST,,40.723297,-73.727257,,,0,
503974,,JAMAICA AV - 246 ST,,40.724735,-73.722649,,,0,
501940,,JAMAICA AV - MASSACHUSETTS BL,,40.725323,-73.720459,,,0,
501941,,JAMAICA AV - COMMONWEALTH BL,,40.725876,-73.718414,,,0,
501942,,JAMAICA AV - PENNSYLVANIA BL,,40.726398,-73.715477,,,0,
504493,,KEENE AV - JAMAICA AV,,40.728199,-73.707779,,,0,
501945,,257 ST - JAMAICA AV,,40.727818,-73.70871,,,0,
504521,,LITTLE NECK PY - 87 DR,,40.72831,-73.710442,,,0,
500939,,LITTLE NECK PY - 87 AV,,40.731274,-73.710869,,,0,
500940,,LITTLE NECK PY - 86 AV,,40.73283,-73.711388,,,0,
500941,,LITTLE NECK PY - 85 AV,,40.734535,-73.712502,,,0,
500942,,LITTLE NECK PY - HILLSIDE AV,,40.736542,-73.713669,,,0,
500943,,LITTLE NECK PY - 83 AV,,40.738224,-73.714722,,,0,
504544,,LITTLE NECK PY - 82 AV,,40.740219,-73.71579,,,0,
500945,,LITTLE NECK PY - 81 AV,,40.741989,-73.716583,,,0,
500946,,LITTLE NECK PY - 80 AV,,40.743809,-73.717392,,,0,
500947,,LITTLE NECK PY - 75 AV,,40.745712,-73.718254,,,0,
500948,,LITTLE NECK PY - 74 AV,,40.747303,-73.718849,,,0,
500949,,LITTLE NECK PY - 73 RD,,40.749733,-73.71994,,,0,
500950,,LITTLE NECK PY - 260 ST,,40.751801,-73.720879,,,0,
500951,,LITTLE NECK PY - GRAND CENTRAL PY,,40.754589,-73.723076,,,0,
500952,,LITTLE NECK PY - 255 ST,,40.756672,-73.722603,,,0,
500953,,LITTLE NECK PY - 61 AV,,40.7593,-73.722504,,,0,
500954,,LITTLE NECK PY - 58 AV,,40.761784,-73.723061,,,0,
500955,,LITTLE NECK PY - HORACE HARDING EXP,,40.764896,-73.724304,,,0,
500956,,LITTLE NECK PY - LEEDS RD,,40.767212,-73.727654,,,0,
500957,,LITTLE NECK PY - BATES RD,,40.768444,-73.729683,,,0,
500958,,LITTLE NECK PY - ANNANDALE LA,,40.769138,-73.731567,,,0,
500959,,LITTLE NECK PY - WEST END DR,,40.770336,-73.733932,,,0,
500960,,LITTLE NECK PY - NORTHERN BL,,40.770775,-73.735931,,,0,
500961,,LITTLE NECK PY - 43 AV,,40.770813,-73.737762,,,0,
500962,,41 AV - LITTLE NECK PY,,40.772587,-73.741127,,,0,
503214,,40 AV - LITTLE NECK PY,,40.77309,-73.741501,,,0,
501946,,256 ST - JAMAICA AV,,40.727776,-73.708687,,,0,
501947,,JAMAICA AV - LITTLE NECK PY,,40.727268,-73.710991,,,0,
501948,,JAMAICA AV - 250 ST,,40.726715,-73.715363,,,0,
501949,,JAMAICA AV - COMMONWEALTH BL,,40.726036,-73.718742,,,0,
501950,,JAMAICA AV - 91 AV,,40.725471,-73.720833,,,0,
501951,,JAMAICA AV - 246 ST,,40.725037,-73.722466,,,0,
501952,,JAMAICA AV - BRADDOCK AV,,40.724655,-73.723999,,,0,
501953,,JAMAICA AV - 242 ST,,40.724037,-73.726074,,,0,
501954,,JAMAICA AV - 239 ST,,40.723145,-73.7285,,,0,
501955,,JAMAICA AV - 224 ST,,40.721458,-73.731323,,,0,
501956,,JAMAICA AV - 222 ST,,40.720028,-73.732811,,,0,
501957,,JAMAICA AV - SPRINGFIELD BL,,40.718716,-73.735046,,,0,
501958,,JAMAICA AV - 218 ST,,40.717918,-73.737442,,,0,
501959,,JAMAICA AV - 216 ST,,40.717529,-73.739334,,,0,
501960,,JAMAICA AV - 215 ST,,40.717098,-73.741196,,,0,
501961,,JAMAICA AV - 214 PL,,40.716591,-73.743378,,,0,
501962,,JAMAICA AV - 212 PL,,40.71627,-73.745018,,,0,
501963,,212 ST - 94 AV,,40.717548,-73.747414,,,0,
501964,,212 ST - 93 AV,,40.71896,-73.748177,,,0,
501965,,212 ST - 91 AV,,40.720535,-73.749031,,,0,
501966,,212 ST - 90 AV,,40.72184,-73.750481,,,0,
501967,,212 ST - 89 AV,,40.723484,-73.75251,,,0,
500963,,40 AV - LITTLE NECK PY,,40.773129,-73.741417,,,0,
500965,,LITTLE NECK PY - MARATHON PY,,40.770683,-73.73838,,,0,
500967,,LITTLE NECK PY - WEST END DR,,40.769802,-73.73288,,,0,
500968,,LITTLE NECK PY - ANNANDALE LA,,40.768913,-73.731262,,,0,
500969,,LITTLE NECK PY - BRATTLE AV,,40.767704,-73.729103,,,0,
500970,,LITTLE NECK PY - LEEDS RD,,40.766827,-73.72718,,,0,
500971,,LITTLE NECK PY - NASSAU BL,,40.764912,-73.72451,,,0,
500973,,LITTLE NECK PY - 58 AV,,40.761555,-73.723206,,,0,
500974,,LITTLE NECK PY - 60 AV,,40.759747,-73.722771,,,0,
500975,,LITTLE NECK PY - 61 AV,,40.75816,-73.722572,,,0,
500976,,LITTLE NECK PY - CULLMAN AV,,40.755512,-73.723289,,,0,
500977,,LITTLE NECK PY - GRAND CENTRAL PY,,40.753117,-73.722397,,,0,
500978,,LITTLE NECK PY - 252 ST,,40.752098,-73.721252,,,0,
500979,,LITTLE NECK PY - 73 RD,,40.749523,-73.720108,,,0,
500980,,LITTLE NECK PY - 74 AV,,40.74699,-73.719101,,,0,
500981,,LITTLE NECK PY - SHILOH AV,,40.745708,-73.718529,,,0,
500982,,LITTLE NECK PY - UNION TP,,40.744106,-73.717812,,,0,
500983,,LITTLE NECK PY - 81 AV,,40.741318,-73.71656,,,0,
500984,,LITTLE NECK PY - 82 AV,,40.739952,-73.715958,,,0,
500985,,LITTLE NECK PY - 83 AV,,40.737392,-73.714775,,,0,
500986,,LITTLE NECK PY - HILLSIDE AV,,40.736271,-73.714111,,,0,
500987,,LITTLE NECK PY - 85 AV,,40.733871,-73.712448,,,0,
500988,,LITTLE NECK PY - 86 AV,,40.732166,-73.711487,,,0,
500989,,LITTLE NECK PY - 87 AV,,40.7295,-73.710823,,,0,
504522,,LITTLE NECK PY - 87 RD,,40.728714,-73.710808,,,0,
504509,,LITTLE NECK PY - 87 DR,,40.727734,-73.71067,,,0,
504045,,213 ST - 92 AV,,40.720577,-73.747093,,,0,
503174,,ARCHER AV - 153 ST,,40.702095,-73.801735,,,0,
904083,,ARCHER AV - TEARDROP CANOPY,,40.701538,-73.80265,,,0,
503950,,ARCHER AV - 165 ST,,40.703869,-73.793861,,,0,
804009,,LIBERTY AV - 168 PL,,40.702709,-73.790016,,,0,
500257,,LIBERTY AV - 170 ST,,40.703335,-73.788429,,,0,
500258,,LIBERTY AV - 173 ST,,40.704464,-73.784874,,,0,
500259,,LIBERTY AV - 177 ST,,40.705315,-73.782654,,,0,
501994,,177 ST - 104 AV,,40.703922,-73.781631,,,0,
501995,,177 ST - 106 AV,,40.702957,-73.780991,,,0,
501996,,POLHEMAS AV - WATSON PL,,40.702087,-73.782066,,,0,
501997,,FERN PL - REX RD,,40.700901,-73.781082,,,0,
501998,,174 ST - 108 AV,,40.699787,-73.781853,,,0,
501999,,174 ST - 109 AV,,40.698513,-73.780914,,,0,
502000,,174 ST - 110 AV,,40.696915,-73.779755,,,0,
502001,,174 ST - 111 AV,,40.695705,-73.77887,,,0,
502002,,111 AV - 175 ST,,40.69606,-73.777534,,,0,
502003,,111 AV - 177 ST,,40.696537,-73.776344,,,0,
502004,,SAYRES AV - 178 ST,,40.697411,-73.77549,,,0,
502005,,SAYRES AV - 179 ST,,40.698608,-73.77462,,,0,
502006,,SAYRES AV - 180 ST,,40.699612,-73.773994,,,0,
502007,,SAYRES AV - 179 PL,,40.6991,-73.774498,,,0,
503549,,SAYRES AV - 178 PL,,40.6978,-73.775429,,,0,
502009,,SAYRES AV - 178 ST,,40.697117,-73.775925,,,0,
502010,,111 AV - 177 ST,,40.696545,-73.776672,,,0,
502011,,111 AV - 175 ST,,40.695858,-73.778351,,,0,
502012,,174 ST - 110 AV,,40.69751,-73.780045,,,0,
502013,,174 ST - 109 AV,,40.699078,-73.781189,,,0,
502014,,174 ST - 108 AV,,40.700008,-73.781876,,,0,
502015,,REX RD - FERN PL,,40.700813,-73.780937,,,0,
502016,,FERN PL - POLHEMAS AV,,40.701389,-73.782257,,,0,
502017,,106 AV - 177 ST,,40.70282,-73.780968,,,0,
502018,,177 ST - 104 AV,,40.704441,-73.781784,,,0,
502019,,177 ST - LIBERTY AV,,40.705311,-73.782402,,,0,
500337,,LIBERTY AV - 172 ST,,40.704277,-73.786003,,,0,
504437,,LIBERTY AV - 170 ST,,40.703667,-73.787979,,,0,
503671,,ARCHER AV - 165 ST,,40.703865,-73.794403,,,0,
904008,,ARCHER AV - 153 ST,,40.702129,-73.801498,,,0,
502085,,HILLSIDE AV - 268 ST,,40.738914,-73.701439,,,0,
502086,,HILLSIDE AV - 266 ST,,40.738529,-73.703239,,,0,
502087,,HILLSIDE AV - 264 ST,,40.738129,-73.705093,,,0,
502088,,HILLSIDE AV - 261 ST,,40.737541,-73.70784,,,0,
503687,,HILLSIDE AV - 258 ST,,40.736954,-73.710556,,,0,
502091,,HILLSIDE AV - LITTLE NECK PY,,40.736137,-73.714371,,,0,
502092,,HILLSIDE AV - 251 ST,,40.735683,-73.716476,,,0,
504528,,HILLSIDE AV - 248 ST,,40.734997,-73.719688,,,0,
502095,,HILLSIDE AV - COMMONWEALTH BL,,40.734562,-73.721687,,,0,
502096,,HILLSIDE AV - 243 ST,,40.734047,-73.724083,,,0,
503914,,HILLSIDE AV - 240 ST,,40.733566,-73.726311,,,0,
502098,,HILLSIDE AV - CREEDMORE HOSPITAL,,40.73275,-73.730476,,,0,
502099,,HILLSIDE AV - RANGE ST,,40.733154,-73.733017,,,0,
502100,,HILLSIDE AV - WINCHESTER BL,,40.733543,-73.735069,,,0,
502103,,HILLSIDE AV - 229 ST,,40.732243,-73.741028,,,0,
502104,,HILLSIDE AV - MANOR RD,,40.730946,-73.743248,,,0,
502131,,HILLSIDE AV - 166 ST,,40.70966,-73.796318,,,0,
502132,,HILLSIDE AV - 164 ST,,40.70892,-73.798927,,,0,
503210,,HILLSIDE AV - 162 ST,,40.708424,-73.800674,,,0,
500361,,HILLSIDE AV - PARSONS BL,,40.707687,-73.803253,,,0,
502136,,HILLSIDE AV - 150 ST,,40.706615,-73.807014,,,0,
504481,,ARCHER AV - SUTPHIN BL,,40.700462,-73.808006,,,0,
502033,,HILLSIDE AV - 150 ST,,40.706497,-73.806671,,,0,
500249,,HILLSIDE AV - PARSONS BL,,40.707565,-73.802917,,,0,
503209,,HILLSIDE AV - 161 ST,,40.708218,-73.800636,,,0,
500251,,HILLSIDE AV - 163 ST,,40.708576,-73.799385,,,0,
500252,,HILLSIDE AV - 165 ST,,40.709137,-73.797386,,,0,
500750,,HILLSIDE AV - 168 ST,,40.710049,-73.794327,,,0,
502044,,HILLSIDE AV - 179 PL,,40.712704,-73.783142,,,0,
502065,,HILLSIDE AV - 88 AV,,40.731705,-73.741089,,,0,
502067,,HILLSIDE AV - 231 ST,,40.732822,-73.739067,,,0,
502069,,HILLSIDE AV - WINCHESTER BL,,40.733376,-73.735756,,,0,
502070,,HILLSIDE AV - RANGE ST,,40.732887,-73.732758,,,0,
502071,,HILLSIDE AV - CREEDMOORE HOSPITAL,,40.732571,-73.731102,,,0,
502072,,HILLSIDE AV - 239 ST,,40.733536,-73.725487,,,0,
502073,,HILLSIDE AV - 241 ST,,40.733685,-73.7248,,,0,
502074,,HILLSIDE AV - CROSS ISLAND PY,,40.733994,-73.723358,,,0,
502075,,HILLSIDE AV - COMMONWEALTH BL,,40.734436,-73.721298,,,0,
503686,,HILLSIDE AV - 248 ST,,40.73497,-73.718819,,,0,
502078,,HILLSIDE AV - 251 ST,,40.73555,-73.716118,,,0,
502079,,HILLSIDE AV - LITTLE NECK PY,,40.736012,-73.713959,,,0,
502080,,HILLSIDE AV - 256 ST,,40.736542,-73.71151,,,0,
502081,,HILLSIDE AV - 259 ST,,40.737125,-73.708794,,,0,
502082,,HILLSIDE AV - 261 ST,,40.737514,-73.706978,,,0,
502083,,HILLSIDE AV - 264 ST,,40.73811,-73.704201,,,0,
502084,,HILLSIDE AV - 267 ST,,40.738701,-73.701454,,,0,
504048,,257 ST - 81 AV,,40.74168,-73.712929,,,0,
502378,,UNION TP - COMMONWEALTH BL,,40.741524,-73.7248,,,0,
103767,,LAFAYETTE AV - HUTCHINSON RVR PKY,,40.824951,-73.836975,,,0,
103374,,BRUSH AV - BRUCKNER BL,,40.828102,-73.840965,,,0,
103375,,CROSS BX SVC RD - ZEREGA AV,,40.828995,-73.844559,,,0,
103376,,CROSS BX SVC RD - HAVERMEYER AV,,40.829712,-73.847778,,,0,
103995,,CROSS BX SVC RD - HAVILAND AV,,40.830444,-73.850212,,,0,
103601,,CROSS BRONX EP - POWELL AV,,40.831165,-73.852592,,,0,
103378,,CROSS BX SVC RD - OLMSTEAD AV,,40.831772,-73.854568,,,0,
103379,,CROSS BX SVC RD - NEWBOLD AV,,40.8325,-73.856995,,,0,
802002,,HUGH GRANT CI - METROPOLITAN AV,,40.833569,-73.861351,,,0,
103248,,CROSS BX SVC RD - WHITE PLAINS RD,,40.834412,-73.863121,,,0,
103380,,CROSS BX SVC RD - TAYLOR AV,,40.835388,-73.866432,,,0,
103381,,CROSS BX SVC RD - ROSEDALE AV,,40.836433,-73.870407,,,0,
103387,,E 177 ST - BRONX PARK AV,,40.838486,-73.876968,,,0,
103565,,DEVOE AV - WYATT ST,,40.839745,-73.87751,,,0,
103996,,E 180 ST - DEVOE AV,,40.842457,-73.877121,,,0,
100646,,BOSTON RD - E 180 ST,,40.84256,-73.878334,,,0,
104003,,E TREMONTAV - BOSTON RD,,40.839821,-73.878372,,,0,
103388,,E 177 ST - BRONX PARK AV,,40.83823,-73.876884,,,0,
103382,,CROSS BX SVC RD - HARROD AV,,40.836052,-73.875404,,,0,
103383,,CROSS BX SVC RD - ROSDALE AV,,40.835548,-73.86982,,,0,
103900,,CROSS BX SVC RD S - BEACH AV,,40.834919,-73.867287,,,0,
103901,,CROSS BX SVC RD S - TAYLOR AV,,40.834431,-73.865639,,,0,
103392,,WESTCHESTER AV - VIRGINIA AV,,40.832924,-73.86174,,,0,
103385,,CROSS BX SVC RD - PUGSLEY AV,,40.831913,-73.857109,,,0,
103386,,CROSS BX SVC RD - OLMSTEAD AV,,40.830891,-73.853676,,,0,
103523,,CROSS BX SVC RD - CASTLE HILL AV,,40.830078,-73.850822,,,0,
103251,,CROSS BX SVC RD - BLACKROCK RD,,40.829155,-73.848015,,,0,
104004,,BRUCKNER BL - BRUSH AV,,40.827862,-73.838928,,,0,
802103,,HUTCHINSON RVR - LAFAYETTE AV,,40.825069,-73.836685,,,0,
103524,,HUTCHINSON RVR PKY - WENNER PL,,40.82254,-73.836456,,,0,
502238,,PARSONS BL - CENTER DR,,40.790474,-73.823868,,,0,
904120,,DETOUR RD - LAKEVILLE RD,,40.755665,-73.703873,,,0,
904122,,LAKEVILLE RD - LIJ MEDICAL RDWY,,40.755482,-73.704323,,,0,
504556,,LAKEVILLE RD - HEWLETT ST,,40.753651,-73.703346,,,0,
505093,,UNION TPK - HEWLETT ST,,40.752136,-73.702545,,,0,
502367,,UNION TP - 270 ST,,40.751213,-73.704285,,,0,
502368,,UNION TP - 267 ST,,40.749901,-73.706757,,,0,
502369,,UNION TP - 265 ST,,40.74905,-73.708374,,,0,
502370,,UNION TP - 263 ST,,40.748173,-73.710014,,,0,
502371,,UNION TP - 260 ST,,40.746883,-73.712502,,,0,
502372,,UNION TP - 258 ST,,40.746326,-73.713562,,,0,
502373,,UNION TP - 255 ST,,40.745266,-73.715569,,,0,
502374,,UNION TP - LITTLE NECK PY,,40.744213,-73.717506,,,0,
502375,,UNION TP - 251 ST,,40.743183,-73.719742,,,0,
503684,,UNION TP - 248 ST,,40.74231,-73.722435,,,0,
502379,,UNION TP - CROSS ISLAND PY,,40.740887,-73.726776,,,0,
502380,,UNION TP - WINCHESTER BL,,40.739147,-73.733543,,,0,
502381,,UNION TP - 235 ST,,40.737988,-73.736771,,,0,
502382,,UNION TP - GRAND CENTRAL PY,,40.737305,-73.739967,,,0,
502383,,UNION TP - CLOVERDALE BL,,40.736668,-73.742912,,,0,
502384,,UNION TP - 226 ST,,40.736229,-73.744934,,,0,
502385,,UNION TP - SPRINGFIELD BL,,40.735901,-73.746468,,,0,
502386,,UNION TP - 222 ST,,40.735435,-73.749069,,,0,
502387,,UNION TP - 220 PL,,40.73513,-73.7509,,,0,
502389,,UNION TP - BELL BL,,40.734318,-73.755707,,,0,
502391,,UNION TP - 211 ST,,40.733536,-73.7603,,,0,
502393,,UNION TP - HOLLIS HILLS TER,,40.732975,-73.763626,,,0,
502394,,UNION TP - FRANCIS LEWIS BL,,40.731773,-73.770706,,,0,
502395,,UNION TP - 197 ST,,40.73127,-73.773521,,,0,
502396,,UNION TP - 196 ST,,40.730911,-73.775345,,,0,
502397,,UNION TP - 193 ST,,40.730175,-73.778023,,,0,
502398,,UNION TP - 190 ST,,40.729691,-73.779785,,,0,
502399,,UNION TP - 188 ST,,40.729176,-73.781609,,,0,
502400,,UNION TP - 185 ST,,40.728264,-73.784386,,,0,
502401,,UNION TP - 183 ST,,40.727703,-73.786095,,,0,
502402,,UNION TP - 179 ST,,40.726585,-73.789497,,,0,
502403,,UNION TP - UTOPIA PY,,40.725761,-73.792252,,,0,
502404,,UNION TP - 174 ST,,40.724648,-73.795509,,,0,
502405,,UNION TP - 171 ST,,40.723797,-73.798004,,,0,
502406,,UNION TP - 168 ST,,40.722908,-73.800613,,,0,
502407,,UNION TP - 166 ST,,40.722305,-73.802376,,,0,
502408,,UNION TP - 164 ST,,40.721642,-73.804321,,,0,
502409,,UNION TP - 160 ST,,40.720646,-73.807182,,,0,
502410,,UNION TP - PARSONS BL,,40.720051,-73.808937,,,0,
503037,,UNION TP - 153 ST,,40.719467,-73.811043,,,0,
502412,,UNION TP - 150 ST,,40.718987,-73.812759,,,0,
502413,,UNION TP - 147 ST,,40.718353,-73.815071,,,0,
502414,,UNION TP - MAIN ST,,40.717636,-73.817757,,,0,
503445,,UNION TP - VLEIGH PL,,40.717434,-73.821396,,,0,
504489,,QUEENS BL - 78 CR,,40.714878,-73.831474,,,0,
904088,,QUEENS BL - 78 AV,,40.715088,-73.831696,,,0,
504545,,UNION TP - QUEENS BL,,40.714619,-73.828804,,,0,
502300,,UNION TP - 135 ST,,40.715935,-73.823669,,,0,
502301,,UNION TP - 141 ST,,40.717049,-73.819374,,,0,
502302,,UNION TP - MAIN ST,,40.717728,-73.816536,,,0,
502303,,UNION TP - 147 ST,,40.718102,-73.815201,,,0,
502304,,UNION TP - 150 ST,,40.71907,-73.811691,,,0,
502305,,UNION TP - PARSONS BL,,40.719772,-73.809166,,,0,
502306,,UNION TP - 160 ST,,40.720543,-73.806839,,,0,
502307,,UNION TP - 164 ST,,40.721279,-73.804733,,,0,
502308,,UNION TP - 165 ST,,40.722076,-73.802406,,,0,
502309,,UNION TP - 168 ST,,40.722965,-73.799789,,,0,
502310,,UNION TP - 170 ST,,40.72356,-73.798058,,,0,
502311,,UNION TP - 173 ST,,40.724461,-73.795425,,,0,
502312,,UNION TP - 175 ST,,40.72501,-73.793808,,,0,
502313,,UNION TP - UTOPIA PY,,40.725777,-73.791275,,,0,
502314,,UNION TP - SURREY PL,,40.726631,-73.788689,,,0,
502315,,UNION TP - KENT ST,,40.727592,-73.785767,,,0,
502316,,UNION TP - CHEVY CHASE ST,,40.728436,-73.78318,,,0,
502317,,UNION TP - 188 ST,,40.729221,-73.780716,,,0,
502318,,UNION TP - 190 ST,,40.729706,-73.778946,,,0,
502319,,UNION TP - 193 ST,,40.730206,-73.777145,,,0,
502320,,UNION TP - 196 ST,,40.730858,-73.774658,,,0,
502321,,UNION TP - 198 ST,,40.731274,-73.772354,,,0,
502322,,UNION TP - FRANCIS LEWIS BL,,40.731781,-73.769493,,,0,
502323,,UNION TP - HOLLIS HILLS TER,,40.732872,-73.763023,,,0,
502325,,UNION TP - 211 ST,,40.733479,-73.759445,,,0,
502327,,UNION TP - BELL BL,,40.734272,-73.754745,,,0,
502328,,UNION TP - STEWART RD,,40.734741,-73.751976,,,0,
502330,,UNION TP - 222 ST,,40.735374,-73.74823,,,0,
502331,,UNION TP - SPRINGFIELD BL,,40.735641,-73.746643,,,0,
502332,,UNION TP - 226 ST,,40.736122,-73.744476,,,0,
502333,,UNION TP - GRAND CENTRAL PY,,40.736599,-73.742218,,,0,
502334,,UNION TP - 232 ST,,40.737133,-73.739777,,,0,
502335,,UNION TP - 234 ST,,40.737663,-73.737312,,,0,
502336,,UNION TP - 236 ST,,40.738071,-73.735489,,,0,
502337,,UNION TP - WINCHESTER BL,,40.73896,-73.733421,,,0,
502338,,UNION TP - CROSS ISLAND PY,,40.740681,-73.726738,,,0,
502339,,UNION TP - COMMONWEALTH BL,,40.741413,-73.724457,,,0,
503588,,UNION TP - 248 ST,,40.742386,-73.721596,,,0,
503033,,UNION TP - 252 ST,,40.743637,-73.718117,,,0,
505152,,UNION TP - 256 ST,,40.745396,-73.714813,,,0,
502344,,UNION TP - 258 ST,,40.746258,-73.713173,,,0,
502350,,UNION TPKE - 260 ST,,40.747116,-73.711548,,,0,
502351,,UNION TP - 263 ST,,40.748447,-73.709045,,,0,
502352,,UNION TP - 265 ST,,40.749294,-73.707451,,,0,
502354,,UNION TP - 268 ST,,40.750603,-73.704971,,,0,
502355,,UNION TP - 271 ST,,40.751904,-73.702515,,,0,
504553,,LAKEVILLE RD - UNION TPK,,40.752846,-73.701942,,,0,
504554,,LAKEVILLE RD - HEWLETT ST,,40.753735,-73.703209,,,0,
904119,,DETOUR RD - LAKEVILLE RD,,40.755676,-73.704048,,,0,
502345,,260 ST - UNION TP,,40.747417,-73.71212,,,0,
502346,,260 ST - 75 AV,,40.748108,-73.713203,,,0,
502347,,260 ST - 74 AV,,40.750134,-73.715355,,,0,
502348,,260 ST - 73 AV,,40.750851,-73.717484,,,0,
804063,,260 ST - LITTLE NECK PY,,40.751671,-73.720772,,,0,
502361,,LITTLE NECK PKY - 260 ST,,40.751984,-73.720551,,,0,
502363,,260 ST - 73 AV,,40.750595,-73.717499,,,0,
502364,,260 ST - 74 AV,,40.749126,-73.716202,,,0,
502365,,260 ST - 75 AV,,40.748177,-73.713715,,,0,
904190,,ROOSEVELT AV - MAIN ST,,40.759586,-73.830299,,,0,
904074,,ROOSEVELT AV - COLLEGE PT BL,,40.758347,-73.833961,,,0,
503901,,ROOSEVELT AV - WILLETS PT BL,,40.755276,-73.843643,,,0,
502569,,ROOSEVELT AV - WILLETS PT BL STATION,,40.754707,-73.845581,,,0,
503902,,ROOSEVELT AV - GRAND CENTRAL PY,,40.75338,-73.849983,,,0,
502570,,ROOSEVELT AV - 114 ST,,40.752628,-73.852524,,,0,
502571,,ROOSEVELT AV - 111 ST,,40.75156,-73.856064,,,0,
502572,,ROOSEVELT AV - 108 ST,,40.750828,-73.858658,,,0,
502573,,108 ST - 38 AV,,40.752628,-73.85965,,,0,
502574,,108 ST - 37 AV,,40.754223,-73.86026,,,0,
502575,,108 ST - 34 AV,,40.756618,-73.860695,,,0,
502576,,108 ST - NORTHERN BL,,40.758183,-73.86097,,,0,
503894,,108 ST - 32 AV,,40.759895,-73.861282,,,0,
502578,,DITMARS BL - 31 AV,,40.762611,-73.86142,,,0,
502579,,DITMARS BL - 29 AV,,40.764194,-73.862442,,,0,
502580,,DITMARS BL - 27 AV,,40.765717,-73.863907,,,0,
503989,,DITMARS BL - 24 RD,,40.767544,-73.866058,,,0,
504485,,DITMARS BL - 102 ST,,40.769081,-73.868469,,,0,
503875,,LAGUARDIA INTERNAL RY - DELTA TERMINAL,,40.768528,-73.862419,,,0,
503848,,LAGUARDIA INTERNAL RY - US AIRWAYS SHUTTLE,,40.769848,-73.8638,,,0,
503897,,LAGUARDIA INTERNAL RDY - US AIRWAYS TERMINAL,,40.771015,-73.865501,,,0,
503849,,LAGUARDIA INTERNAL RDY - PARKING LOT  #3,,40.772831,-73.868355,,,0,
503850,,LAGUARDIA INTERNAL RDY - CENTRAL TERM BUILDING,,40.774254,-73.872551,,,0,
503852,,LAGUARDIA INTERNAL RDY - AA FREIGHT,,40.77367,-73.875641,,,0,
904150,,BOWERY BAY BL - FIORELLO LN,,40.770306,-73.886772,,,0,
904118,,MARINE AIR TERM - PARKING LOT #6,,40.77319,-73.88633,,,0,
503853,,MARINE AIRTERM RDY - PARKING LOT #6A,,40.77264,-73.886162,,,0,
503854,,MARINE AIRTERM RDY - PARKING LOT #6A,,40.770813,-73.885445,,,0,
503857,,23 AV - 97 ST,,40.768318,-73.873497,,,0,
502547,,DITMARS BL - 102 ST,,40.768661,-73.868286,,,0,
502548,,DITMARS BL - 25 AV,,40.766968,-73.865517,,,0,
502549,,DITMARS BL - 27 AV,,40.765759,-73.864227,,,0,
502550,,DITMARS BL - 29 AV,,40.764202,-73.862724,,,0,
502551,,DITMARS BL - 31 AV,,40.762657,-73.86171,,,0,
503083,,108 ST - ASTORIA BL,,40.76067,-73.861343,,,0,
502553,,108 ST - 32 AV,,40.759647,-73.861427,,,0,
502554,,108 ST - NORTHERN BL,,40.757446,-73.861023,,,0,
502555,,108 ST - 34 AV,,40.755928,-73.860748,,,0,
502556,,108 ST - 37 AV,,40.754028,-73.860397,,,0,
502557,,108 ST - 38 AV,,40.751995,-73.859512,,,0,
502558,,ROOSEVELT AV - 108 ST,,40.750759,-73.858337,,,0,
502559,,ROOSEVELT AV - 111 ST,,40.751617,-73.855423,,,0,
502560,,ROOSEVELT AV - 114 ST,,40.752583,-73.852226,,,0,
503898,,ROOSEVELT AV - SHEA PARKING LOT,,40.75378,-73.848183,,,0,
504484,,ROOSEVELT AV - WILLETS PT BL STATIO,,40.754482,-73.845703,,,0,
503880,,ROOSEVELT AV - 126 ST,,40.75523,-73.843369,,,0,
503900,,ROOSEVELT AV - COLLEGE PT BL,,40.758202,-73.833817,,,0,
904011,,ROOSEVELT AV - MAIN ST,,40.759441,-73.830345,,,0,
503855,,DITMARS BL - 82 ST,,40.767281,-73.887993,,,0,
504417,,23 AV - 82 ST,,40.766323,-73.887108,,,0,
503876,,23 AV - 87 ST,,40.767246,-73.88237,,,0,
502540,,23 AV - 89 ST,,40.767582,-73.88047,,,0,
502541,,23 AV - 92 ST,,40.767864,-73.877724,,,0,
503856,,23 AV - 94 ST,,40.768009,-73.876404,,,0,
504950,,149 AV - 253 ST,,40.652969,-73.736488,,,0,
504951,,149 AV - 257 ST,,40.652843,-73.731651,,,0,
504952,,259 ST - 149 AV,,40.653191,-73.729668,,,0,
503957,,148 AV - 259 ST,,40.654953,-73.729263,,,0,
552284,,FRANCIS LEWIS BL - 147 DR,,40.655773,-73.727058,,,0,
504954,,FRANCIS LEWIS BL - 256 ST,,40.659214,-73.729843,,,0,
504955,,FRANCIS LEWIS BL - S CONDUIT AV,,40.664814,-73.734856,,,0,
504956,,MERRICK BL - HOOK CREEK BL,,40.674301,-73.727913,,,0,
553021,,MERRICK BL - 233 ST,,40.675148,-73.737274,,,0,
504957,,LINDEN BL - GUY BREWER BL,,40.689117,-73.785713,,,0,
550279,,LINDEN BL - SUTPHIN BL,,40.686253,-73.794365,,,0,
504959,,LINDEN BL - VAN WYCK EP,,40.683193,-73.805122,,,0,
504488,,QUEENS BL - 78 AV,,40.71521,-73.831902,,,0,
405232,,E 37 ST - 2 AV,,40.74688,-73.974777,,,0,
803035,,E 37 ST - 3 AV,,40.747608,-73.976555,,,0,
402679,,3 AV - E 42 ST,,40.751068,-73.974083,,,0,
402681,,3 AV - E 47 ST,,40.754215,-73.971802,,,0,
404169,,3 AV - E 55 ST,,40.759201,-73.968147,,,0,
403617,,E 57 ST - LEXINGTON AV,,40.761185,-73.969505,,,0,
904099,,E 57 ST - PARK AV,,40.761776,-73.970901,,,0,
400316,,5 AV - W 56 ST,,40.762016,-73.974785,,,0,
803037,,5 AV - W 52 ST,,40.759594,-73.976685,,,0,
803038,,5 AV - W 45 ST,,40.755322,-73.979668,,,0,
803039,,5 AV - W 37 ST,,40.750244,-73.98333,,,0,
803040,,5 AV - 32 ST,,40.74707,-73.985657,,,0,
400327,,5 AV - W 26 ST,,40.743153,-73.988541,,,0,
402130,,E 23 ST - BROADWAY,,40.741203,-73.989006,,,0,
402133,,E 23 ST - LEXINGTON  AV,,40.739208,-73.984299,,,0,
402134,,E 23 ST - 3 AV,,40.738567,-73.982773,,,0,
803036,,1 AV - 23 ST,,40.737099,-73.978264,,,0,
402143,,E 23 ST - 1 AV,,40.737091,-73.978867,,,0,
402146,,E 23 ST - LEXINGTON AV,,40.739697,-73.98497,,,0,
404295,,MADISON AV - E 25 ST,,40.742004,-73.987083,,,0,
404296,,MADISON AV - E 29 ST,,40.744244,-73.98542,,,0,
404297,,MADISON AV - E 33 ST,,40.746967,-73.983437,,,0,
404298,,MADISON AV - E 40 ST,,40.751419,-73.980194,,,0,
903044,,MADISON AV - E 42 ST,,40.752556,-73.97924,,,0,
404299,,MADISON AV - E 48 ST,,40.756847,-73.976112,,,0,
404300,,MADISON AV - E 54 ST,,40.760616,-73.973465,,,0,
402212,,E 57 ST - PARK AV,,40.761326,-73.970322,,,0,
402214,,E 57 ST - LEXINGTON AV,,40.760674,-73.968773,,,0,
402215,,E 57 ST - 3 AV,,40.759876,-73.966827,,,0,
904036,,QUEENS BL - 78 AV,,40.714661,-73.832092,,,0,
550262,,LINDEN BVD - VAN WYCK EXPY,,40.683132,-73.804787,,,0,
550265,,LINDEN BL - SUTPHIN BL,,40.686371,-73.793488,,,0,
550267,,LINDEN BL - GUY R BREWER BL,,40.688866,-73.785919,,,0,
550269,,LINDEN BL - 170 ST,,40.691433,-73.779587,,,0,
503959,,SUNRISE HWY - HOOK CREEK BL,,40.665646,-73.730324,,,0,
505169,,FRANCIS LEWIS BL - S.CONDUIT AV,,40.664978,-73.735214,,,0,
904033,,FRANCIS LEWIS BL - 255 ST,,40.659298,-73.73008,,,0,
505171,,FRANCIS LEWIS BL - 147 DR,,40.655506,-73.727112,,,0,
505098,,148 AV - 259 ST,,40.655052,-73.729538,,,0,
505099,,259 ST - 149 AV,,40.652977,-73.72979,,,0,
505100,,149 AV - 257 ST,,40.653,-73.731903,,,0,
904035,,253 ST - 149 AV,,40.652878,-73.736755,,,0,
504523,,BRINKERHOFF AV - 189 ST,,40.703831,-73.767426,,,0,
500332,,LIBERTY AV - 184 ST,,40.704956,-73.773163,,,0,
500336,,LIBERTY AV - 177 ST,,40.705391,-73.783035,,,0,
504967,,LIBERTY AV - VAN WYCK EP,,40.692169,-73.810196,,,0,
500230,,LIBERTY AV - REMINGTON ST,,40.692223,-73.809433,,,0,
904037,,LIBERTY AV - SUTPHIN BL,,40.696224,-73.804314,,,0,
904038,,LIBERTY AV - UNION HALL ST,,40.700649,-73.795525,,,0,
500256,,LIBERTY AV - 168 PL,,40.702641,-73.790092,,,0,
503831,,LIBERTY AV - 184 ST,,40.704716,-73.772713,,,0,
500266,,LIBERTY AV - HILBURN AV,,40.703201,-73.767159,,,0,
504968,,HILLSIDE AV - 257 ST,,40.736771,-73.711418,,,0,
504969,,HILLSIDE AV - 215 ST,,40.72691,-73.750076,,,0,
504970,,HILLSIDE AV - MIDLAND PY,,40.712986,-73.782867,,,0,
504971,,HILLSIDE AV - 173 ST,,40.712109,-73.789398,,,0,
551578,,QUEENS BLVD - 78 AV,,40.715504,-73.832291,,,0,
904040,,E 37 ST - 3 AV,,40.747623,-73.976494,,,0,
904041,,E 42 ST - PARK AV,,40.752079,-73.977417,,,0,
904042,,MADISON AV - E 48 ST,,40.756863,-73.976212,,,0,
904043,,MADISON AV - E 54 ST,,40.760651,-73.97345,,,0,
904044,,E 57 ST - LEXINGTON AV,,40.760647,-73.968826,,,0,
904045,,E 57 ST - 3 AV,,40.759918,-73.966972,,,0,
402224,,E 57 ST - 3 AV,,40.760521,-73.967934,,,0,
450123,,5 AV - W 50 ST,,40.758892,-73.977066,,,0,
400134,,5 AV - W 44 ST,,40.754517,-73.980247,,,0,
400135,,5 AV - W 42 ST,,40.753159,-73.981239,,,0,
400324,,5 AV - W 33 ST,,40.747509,-73.985359,,,0,
401840,,E 34 ST - 3 AV,,40.745979,-73.978516,,,0,
401842,,E 34 ST - PARK AV,,40.747234,-73.981544,,,0,
500007,,HILLSIDE AV - 179 PL,,40.712807,-73.782715,,,0,
904101,,HILLSIDE AV - 268 ST,,40.738716,-73.701385,,,0,
904010,,132 ST - 20 AV,,40.782063,-73.836716,,,0,
502727,,14 AV - PARSONS BL,,40.78688,-73.821899,,,0,
502728,,14 AV - 147 ST,,40.787506,-73.819199,,,0,
505060,,CROSS ISLAND PKY - 149 ST,,40.787464,-73.816277,,,0,
502735,,FRANCIS LEWIS BL - LOCKE AV,,40.785042,-73.805817,,,0,
502736,,FRANCIS LEWIS BL - 17 AV,,40.783134,-73.804588,,,0,
502737,,FRANCIS LEWIS BL - 18 AV,,40.781601,-73.803703,,,0,
502746,,FRANCIS LEWIS BL - 171 ST,,40.770851,-73.793762,,,0,
503041,,FRANCIS LEWIS BL - 32 AV,,40.768974,-73.792114,,,0,
502750,,FRANCIS LEWIS BL - 194 ST,,40.763897,-73.787781,,,0,
502751,,FRANCIS LEWIS BL - 38 AV,,40.762642,-73.785667,,,0,
502752,,FRANCIS LEWIS BL - STATION RD,,40.761166,-73.785194,,,0,
502753,,FRANCIS LEWIS BL - 42 AV,,40.759537,-73.784515,,,0,
502754,,FRANCIS LEWIS BL - NORTHERN BL,,40.757397,-73.783424,,,0,
502755,,FRANCIS LEWIS BL - 45 AV,,40.756332,-73.782852,,,0,
502756,,FRANCIS LEWIS BL - 46 AV,,40.754391,-73.78157,,,0,
502757,,FRANCIS LEWIS BL - 47 AV,,40.753002,-73.780502,,,0,
502758,,FRANCIS LEWIS BL - 48 AV,,40.751553,-73.7798,,,0,
502759,,FRANCIS LEWIS BL - 50 AV,,40.749992,-73.77906,,,0,
502760,,FRANCIS LEWIS BL - 53 AV,,40.74839,-73.778297,,,0,
502761,,FRANCIS LEWIS BL - 56 AV,,40.746792,-73.777542,,,0,
502763,,FRANCIS LEWIS BL - HORACE HARDING EXP N,,40.743942,-73.776184,,,0,
502764,,FRANCIS LEWIS BL - HORACE HARDING EXP S,,40.742668,-73.775597,,,0,
502765,,FRANCIS LEWIS BL - 73 AV,,40.735909,-73.772865,,,0,
502766,,FRANCIS LEWIS BL - UNION TP,,40.731453,-73.770042,,,0,
502767,,FRANCIS LEWIS BL - MCLAUGHLIN AV,,40.725155,-73.765503,,,0,
503731,,FRANCIS LEWIS BL - EPSOM COURSE,,40.724396,-73.764511,,,0,
502768,,FRANCIS LEWIS BL - 204 ST,,40.723225,-73.762253,,,0,
502769,,FRANCIS LEWIS BL - HILLSIDE AV,,40.721123,-73.759651,,,0,
503773,,165 ST TERM - 165 ST TERM BAY 3,,40.708107,-73.795555,,,0,
501320,,HILLSIDE AV - 168 PL,,40.710407,-73.793472,,,0,
504027,,HILLSIDE AV - 181 ST,,40.713135,-73.781364,,,0,
503730,,FRANCIS LEWIS BL - WHITEHALL TERR,,40.722092,-73.760147,,,0,
502685,,FRANCIS LEWIS BL - 86 RD,,40.723778,-73.762825,,,0,
502686,,FRANCIS LEWIS BL - EPSOM COURSE,,40.724659,-73.764557,,,0,
503787,,FRANCIS LEWIS BL - GRAND CENTRAL PY,,40.725403,-73.765366,,,0,
502688,,FRANCIS LEWIS BL - UNION TP,,40.732121,-73.770172,,,0,
502689,,FRANCIS LEWIS BL - 73 AV,,40.736626,-73.772858,,,0,
502690,,FRANCIS LEWIS BL - HORACE HARDING EXP,,40.742928,-73.775406,,,0,
502691,,FRANCIS LEWIS BL - HORACE HARDING EXP,,40.744072,-73.77594,,,0,
502692,,FRANCIS LEWIS BL - 58 AV,,40.745903,-73.77681,,,0,
502693,,FRANCIS LEWIS BL - 56 AV,,40.747505,-73.777565,,,0,
502694,,FRANCIS LEWIS BL - 53 AV,,40.749096,-73.77832,,,0,
502695,,FRANCIS LEWIS BL - 50 AV,,40.75066,-73.779068,,,0,
502696,,FRANCIS LEWIS BL - 48 AV,,40.752201,-73.7798,,,0,
502697,,FRANCIS LEWIS BL - 47 AV,,40.753658,-73.780609,,,0,
502698,,FRANCIS LEWIS BL - 46 AV,,40.755024,-73.781738,,,0,
502699,,FRANCIS LEWIS BL - 45 RD,,40.756336,-73.78244,,,0,
502700,,FRANCIS LEWIS BL - 44 AV,,40.75729,-73.782921,,,0,
502701,,FRANCIS LEWIS BL - 43 AV,,40.758205,-73.783417,,,0,
502702,,FRANCIS LEWIS BL - 42 AV,,40.759796,-73.784264,,,0,
502703,,FRANCIS LEWIS BL - STATION RD,,40.761158,-73.784912,,,0,
502704,,FRANCIS LEWIS BL - 38 AV,,40.762917,-73.785538,,,0,
504473,,FRANCIS LEWIS BL - 172 ST,,40.770851,-73.793411,,,0,
502717,,FRANCIS LEWIS BL - 160 ST,,40.781727,-73.803314,,,0,
502718,,FRANCIS LEWIS BL - 17 RD,,40.782932,-73.804131,,,0,
502719,,FRANCIS LEWIS BL - 16 AV,,40.785156,-73.805496,,,0,
502722,,CROSS ISLAND PY - 150 ST,,40.787621,-73.813889,,,0,
502724,,14 AV - 147 ST,,40.787636,-73.81916,,,0,
502433,,14 AV - 146 ST,,40.787209,-73.820976,,,0,
505061,,132 ST - 20 AV,,40.782139,-73.836708,,,0,
504044,,208 ST - 32 AV BAY 2,,40.771492,-73.782143,,,0,
504068,,165 ST - BUS TERMINAL,,40.708622,-73.795944,,,0,
502045,,HILLSIDE AV - 181 ST,,40.713009,-73.781868,,,0,
502792,,FRANCIS LEWIS BL - 89 AV,,40.719265,-73.75824,,,0,
502793,,FRANCIS LEWIS BL - 90 AV,,40.717804,-73.757149,,,0,
502794,,FRANCIS LEWIS BL - 93 AV,,40.715969,-73.755783,,,0,
502795,,FRANCIS LEWIS BL - JAMAICA AV,,40.713978,-73.754288,,,0,
502796,,FRANCIS LEWIS BL - 99 AV,,40.712723,-73.753578,,,0,
502797,,FRANCIS LEWIS BL - 100 AV,,40.711693,-73.753166,,,0,
502798,,FRANCIS LEWIS BL - 104 AV,,40.709969,-73.752441,,,0,
502799,,FRANCIS LEWIS BL - 109 AV,,40.708496,-73.751831,,,0,
502800,,FRANCIS LEWIS BL - HOLLIS AV,,40.70697,-73.75119,,,0,
502801,,FRANCIS LEWIS BL - 111 AV,,40.70533,-73.750458,,,0,
502802,,FRANCIS LEWIS BL - 112 AV,,40.70396,-73.74984,,,0,
502803,,FRANCIS LEWIS BL - 113 AV,,40.702595,-73.749222,,,0,
502804,,FRANCIS LEWIS BL - MURDOCK AV,,40.70121,-73.748604,,,0,
502805,,FRANCIS LEWIS BL - 114 DR,,40.69994,-73.748032,,,0,
502806,,FRANCIS LEWIS BL - 115 AV,,40.699215,-73.747704,,,0,
502807,,FRANCIS LEWIS BL - 116 AV,,40.697598,-73.746971,,,0,
502808,,FRANCIS LEWIS - LINDEN BL,,40.696201,-73.746368,,,0,
502809,,FRANCIS LEWIS BL - NASHVILLE BL,,40.693668,-73.745239,,,0,
502810,,SPRINGFIELD BL - 120 AV,,40.691231,-73.746376,,,0,
502811,,SPRINGFIELD BL - 121 AV,,40.689461,-73.747597,,,0,
502812,,SPRINGFIELD BL - 122 AV,,40.68729,-73.749123,,,0,
502813,,SPRINGFIELD BL - 197 ST,,40.685429,-73.750496,,,0,
502814,,SPRINGFIELD BL - 193 ST,,40.683968,-73.751297,,,0,
502815,,SPRINGFIELD BL - LUCAS ST,,40.682323,-73.752098,,,0,
502816,,SPRINGFIELD BL - MERRICK BL,,40.680393,-73.753334,,,0,
502818,,SPRINGFIELD BL - E GATE PZ,,40.67551,-73.755981,,,0,
502819,,SPRINGFIELD BL - 139 AV,,40.673084,-73.756371,,,0,
503073,,SPRINGFIELD BL - 141 AV,,40.671219,-73.756607,,,0,
503971,,SPRINGFIELD BL - 143 AV,,40.668453,-73.756897,,,0,
500655,,SPRINGFIELD BL - 144 AV,,40.66713,-73.757423,,,0,
502823,,SPRINGFIELD BL - S CONDUIT AV,,40.665264,-73.758553,,,0,
504063,,SPRINGFIELD BL - 145 RD,,40.66396,-73.759315,,,0,
504065,,SPRINGFIELD BL - 145 RD,,40.663849,-73.759369,,,0,
502825,,SPRINGFIELD BL - 145 AV,,40.664986,-73.758308,,,0,
500687,,SPRINGFIELD BL - 144 AV,,40.66713,-73.757118,,,0,
500688,,SPRINGFIELD BL - 143 AV,,40.668304,-73.756584,,,0,
500689,,SPRINGFIELD BL - 141 RD,,40.670815,-73.756317,,,0,
500690,,SPRINGFIELD BL - 141 AV,,40.671928,-73.756294,,,0,
502830,,SPRINGFIELD BL - 138 RD,,40.674072,-73.755951,,,0,
502831,,SPRINGFIELD BL - E GATE PZ,,40.675709,-73.755692,,,0,
502832,,SPRINGFIELD BL - 136 AV,,40.678093,-73.754463,,,0,
502833,,SPRINGFIELD BL - MERRICK BL,,40.679924,-73.753098,,,0,
502834,,SPRINGFIELD BL - 132 RD,,40.682648,-73.751549,,,0,
502835,,SPRINGFIELD BL - 131 AV,,40.68399,-73.751007,,,0,
502836,,SPRINGFIELD BL - 130 AV,,40.685833,-73.749985,,,0,
502837,,SPRINGFIELD - MONTEFIORE CEMETERY,,40.68803,-73.74826,,,0,
502838,,SPRINGFIELD BL - 121 AV,,40.689972,-73.747002,,,0,
502839,,SPRINGFIELD BL - 120 AV,,40.69112,-73.746216,,,0,
502840,,FRANCIS LEWIS BL - SPRINGFIELD BL,,40.693817,-73.745018,,,0,
502841,,FRANCIS LEWIS BL - LINDEN BL,,40.696476,-73.746208,,,0,
502842,,FRANCIS LEWIS BL - 116 AV,,40.697849,-73.746849,,,0,
502843,,FRANCIS LEWIS BL - 115 AV,,40.699886,-73.747765,,,0,
502844,,FRANCIS LEWIS BL - MURDOCK AV,,40.701912,-73.748672,,,0,
502845,,FRANCIS LEWIS BL - 113 AV,,40.703262,-73.749283,,,0,
502846,,FRANCIS LEWIS BL - 112 AV,,40.704597,-73.749886,,,0,
502847,,FRANCIS LEWIS BL - 111 AV,,40.705956,-73.750496,,,0,
502848,,FRANCIS LEWIS BL - HOLLIS AV,,40.707676,-73.751259,,,0,
502849,,FRANCIS LEWIS BL - 109 AV,,40.709164,-73.751869,,,0,
502850,,FRANCIS LEWIS BL - 104 AV,,40.710636,-73.75248,,,0,
502851,,FRANCIS LEWIS BL - 100 AV,,40.712353,-73.753197,,,0,
502852,,FRANCIS LEWIS BL - JAMAICA AV,,40.714211,-73.754189,,,0,
502853,,FRANCIS LEWIS BL - 93 AV,,40.71661,-73.755989,,,0,
502854,,FRANCIS LEWIS BL - 90 AV,,40.718452,-73.757347,,,0,
502855,,FRANCIS LEWIS BL - 89 AV,,40.719543,-73.758156,,,0,
904009,,165 ST - 165 ST TERMINAL,,40.708736,-73.796021,,,0,
504533,,204 ST - 111 AV BAY 3,,40.70615,-73.753395,,,0,
500315,,MURDOCK AV - SPRINGFIELD BL,,40.703548,-73.740952,,,0,
503064,,MURDOCK AV - 212 ST,,40.703064,-73.74321,,,0,
500317,,MURDOCK AV - 210 ST,,40.702477,-73.745453,,,0,
500318,,MURDOCK AV - 208 ST,,40.702011,-73.747223,,,0,
503067,,MURDOCK AV - FRANCIS LEWIS BL,,40.701607,-73.748795,,,0,
500320,,MURDOCK AV - 204 ST,,40.700893,-73.751534,,,0,
500321,,MURDOCK AV - 202 ST,,40.700424,-73.753326,,,0,
500322,,MURDOCK AV - 200 ST,,40.699959,-73.755112,,,0,
500323,,MURDOCK AV - 198 ST,,40.699482,-73.756874,,,0,
503922,,MURDOCK AV - 196 ST,,40.699169,-73.758163,,,0,
503070,,MURDOCK AV - 194 ST,,40.698433,-73.760902,,,0,
503247,,MURDOCK AV - FARMERS BL,,40.698105,-73.762154,,,0,
500331,,LIBERTY AV - 187 ST,,40.704227,-73.76992,,,0,
503604,,LIBERTY AV - 183 ST,,40.705528,-73.776283,,,0,
500334,,LIBERTY AV - 182 ST,,40.705696,-73.77813,,,0,
500335,,LIBERTY AV - 180 ST,,40.705486,-73.780304,,,0,
503175,,ARCHER AV - PARSONS BL BAY A,,40.702553,-73.799828,,,0,
503789,,153 ST - JAMAICA AV,,40.703014,-73.802399,,,0,
503166,,153 ST - 89 AV,,40.705486,-73.803627,,,0,
503167,,153 ST - HILLSIDE AV,,40.706795,-73.8041,,,0,
503169,,153 ST - HILLSIDE AV,,40.707035,-73.804344,,,0,
503168,,150 ST - JAMAICA AV,,40.702232,-73.80455,,,0,
504464,,LIBERTY AV - 180 ST,,40.705555,-73.777802,,,0,
504465,,LIBERTY AV - 183 ST,,40.705376,-73.776291,,,0,
500264,,LIBERTY AV - CAMDEN AV,,40.704239,-73.770554,,,0,
500265,,LIBERTY AV - ELMIRA AV,,40.703709,-73.768517,,,0,
503911,,MURDOCK AV - FARMERS BL,,40.698055,-73.761902,,,0,
500271,,MURDOCK AV - 194 ST,,40.698555,-73.760063,,,0,
500272,,MURDOCK AV - 196 ST,,40.699135,-73.757828,,,0,
500273,,MURDOCK AV - 198 ST,,40.699574,-73.756058,,,0,
504541,,MURDOCK AV - 200 ST,,40.699905,-73.754784,,,0,
503244,,MURDOCK AV - 202 ST,,40.700493,-73.752525,,,0,
503245,,MURDOCK AV - 204 ST,,40.700966,-73.75071,,,0,
503062,,MURDOCK AV - FRANCIS LEWIS BL,,40.701462,-73.748795,,,0,
503246,,MURDOCK AV - 208 ST,,40.702076,-73.746437,,,0,
503080,,MURDOCK AV - 210 ST,,40.702541,-73.744637,,,0,
500280,,MURDOCK AV - 212 ST,,40.702709,-73.743973,,,0,
500281,,MURDOCK AV - SPRINGFIELD BL,,40.70335,-73.740929,,,0,
500298,,AMBOY LA - JAMAICA AV,,40.717831,-73.735695,,,0,
500282,,COLFAX ST - 212 ST,,40.702312,-73.74305,,,0,
500283,,COLFAX ST - SPRINGFIELD BL,,40.70179,-73.741348,,,0,
500284,,114 AV - 219 ST,,40.701843,-73.738327,,,0,
500285,,114 AV - 221 ST,,40.701782,-73.736382,,,0,
500286,,114 AV - 223 ST,,40.701725,-73.734459,,,0,
500287,,114 AV - 225 ST,,40.70166,-73.732491,,,0,
500288,,114 AV - 227 ST,,40.701565,-73.730583,,,0,
904104,,227 ST - 113 DR,,40.70211,-73.730339,,,0,
500289,,227 ST - 113 DR,,40.702263,-73.730339,,,0,
500300,,113 DR - 225 ST,,40.702477,-73.732231,,,0,
500301,,113 DR - 223 ST,,40.702522,-73.734184,,,0,
500302,,113 DR - 221 ST,,40.702576,-73.736145,,,0,
500303,,113 DR - 219 ST,,40.702652,-73.738075,,,0,
804005,,111 AV - 204 ST,,40.705929,-73.753258,,,0,
500456,,120 AV - IRWIN PL,,40.684441,-73.768898,,,0,
500457,,120 AV - SUNBURY RD,,40.684914,-73.767021,,,0,
500458,,120 AV - 178 PL,,40.685123,-73.766167,,,0,
500459,,120 AV - 180 ST,,40.685783,-73.763535,,,0,
500460,,120 AV - FARMERS BL,,40.686344,-73.761299,,,0,
500461,,120 AV - LUCAS ST,,40.687389,-73.758408,,,0,
500462,,120 AV - 192 ST,,40.687927,-73.756966,,,0,
500463,,120 AV - 194 ST,,40.688522,-73.755325,,,0,
500464,,120 AV - 196 ST,,40.689114,-73.753716,,,0,
500465,,120 AV - 198 ST,,40.689701,-73.75209,,,0,
500466,,120 AV - 200 ST,,40.690468,-73.750008,,,0,
500467,,120 AV - NASHVILLE BL,,40.691326,-73.747551,,,0,
500468,,120 AV - SPRINGFIELD BL,,40.691078,-73.745834,,,0,
500469,,120 AV - 218 ST,,40.690548,-73.744095,,,0,
500470,,120 AV - FRANCIS LEWIS BL,,40.689934,-73.742073,,,0,
500471,,120 AV - 222 ST,,40.689484,-73.740585,,,0,
500472,,120 AV - 224 ST,,40.68895,-73.738808,,,0,
500473,,120 AV - 226 ST,,40.688427,-73.737099,,,0,
500474,,120 AV - 228 ST,,40.687885,-73.735352,,,0,
500475,,120 AV - 230 ST,,40.687378,-73.733589,,,0,
500476,,120 AV - 232 ST,,40.686844,-73.731842,,,0,
500477,,120 AV - 234 ST,,40.68631,-73.730087,,,0,
500478,,120 AV - 237 ST,,40.685547,-73.727554,,,0,
500479,,238 ST - 121 AV,,40.683464,-73.728081,,,0,
500480,,238 ST - 128 AV,,40.681656,-73.728897,,,0,
500481,,LAURELTON PY - 129 AV,,40.679764,-73.729942,,,0,
500482,,237 ST - 129 AV,,40.680134,-73.730247,,,0,
500483,,237 ST - 128 AV,,40.6824,-73.729431,,,0,
500484,,237 ST - 121 AV,,40.684372,-73.7285,,,0,
500485,,120 AV - 237 ST,,40.685886,-73.728172,,,0,
500486,,120 AV - 234 ST,,40.686699,-73.73082,,,0,
500487,,120 AV - 231 ST,,40.687496,-73.733482,,,0,
500488,,120 AV - 229 ST,,40.688007,-73.735161,,,0,
500489,,120 AV - 227 ST,,40.688396,-73.73645,,,0,
500490,,120 AV - 224 ST,,40.689323,-73.739517,,,0,
500491,,120 AV - 222 ST,,40.689865,-73.741295,,,0,
500494,,120 AV - SPRINGFIELD BL,,40.691467,-73.746628,,,0,
500495,,120 AV - 202 ST,,40.691132,-73.748543,,,0,
500496,,120 AV - 200 ST,,40.690372,-73.750542,,,0,
500497,,120 AV - 199 ST,,40.689941,-73.751717,,,0,
500498,,120 AV - 197 ST,,40.689476,-73.752998,,,0,
500499,,120 AV - 195 ST,,40.688751,-73.754997,,,0,
500500,,120 AV - 193 ST,,40.688118,-73.756721,,,0,
500501,,120 AV - 190 ST,,40.687199,-73.759239,,,0,
500502,,120 AV - FARMERS BL,,40.686543,-73.76104,,,0,
500503,,120 AV - 180 ST,,40.685963,-73.76342,,,0,
500504,,120 AV - 178 ST,,40.685509,-73.765198,,,0,
500505,,120 AV - 177 ST,,40.685089,-73.766876,,,0,
804039,,ARCHER AV - 153 ST,,40.702137,-73.801407,,,0,
504469,,ARCHER AV - PARSONS BL,,40.702179,-73.800621,,,0,
500633,,BAISLEY BL - MERRILL ST,,40.683014,-73.770439,,,0,
500634,,BAISLEY BL - 172 ST,,40.681847,-73.77211,,,0,
500636,,BEDELL ST - BAISLEY BL,,40.680222,-73.774445,,,0,
500637,,BEDELL ST - 127 AV,,40.679436,-73.77317,,,0,
500638,,BEDELL ST - 130 AV,,40.677963,-73.770805,,,0,
500639,,BEDELL ST - 133 AV,,40.676273,-73.768082,,,0,
500640,,BEDELL ST - 134 RD,,40.674877,-73.765831,,,0,
503605,,BEDELL ST - FARMERS BL,,40.673798,-73.764,,,0,
500649,,140 AV - 180 ST,,40.671577,-73.763916,,,0,
500651,,140 AV - 183 ST,,40.672161,-73.76078,,,0,
500652,,140 AV - THURSTON ST,,40.672485,-73.759125,,,0,
503132,,S CONDUIT AV - 221 ST,,40.665455,-73.757111,,,0,
500657,,S CONDUIT AV - 223 ST,,40.665421,-73.754364,,,0,
500658,,S CONDUIT AV - 225 ST,,40.665428,-73.7519,,,0,
500659,,S CONDUIT AV - LANSING AV,,40.665413,-73.747597,,,0,
500660,,S CONDUIT AV - 231 ST,,40.665306,-73.744507,,,0,
503777,,S CONDUIT AV - 233 ST,,40.665257,-73.743034,,,0,
500661,,S CONDUIT AV - BROOKVILLE BL,,40.665184,-73.739845,,,0,
503912,,S CONDUIT AV - 140 AV,,40.665184,-73.736679,,,0,
500663,,243 ST - S. CONDUIT AV,,40.665081,-73.735901,,,0,
500664,,243 ST - MEMPHIS AV,,40.663895,-73.736839,,,0,
500665,,243 ST - 142 AV,,40.662567,-73.737732,,,0,
500666,,243 ST - WELLER AV,,40.661324,-73.73867,,,0,
500667,,243 ST - 145 AV,,40.659481,-73.740082,,,0,
500668,,243 ST - HUXLEY ST,,40.657585,-73.741501,,,0,
804034,,243 ST - 147 AV,,40.657658,-73.74128,,,0,
500677,,243 ST - 147 AV,,40.657738,-73.741211,,,0,
500678,,243 ST - 144 AV,,40.660568,-73.739067,,,0,
500679,,243 ST - WELLER AV,,40.661457,-73.738411,,,0,
500680,,243 ST - 142 AV,,40.662731,-73.737442,,,0,
500681,,243 ST - MEMPHIS AV,,40.663708,-73.73661,,,0,
503954,,SUNRISE HY - FRANCIS LEWIS BL,,40.66568,-73.736229,,,0,
500683,,SUNRISE HY - BROOKVILLE BL,,40.665676,-73.738831,,,0,
500684,,N CONDUIT AV - 230 PL,,40.6665,-73.745132,,,0,
500685,,N CONDUIT AV - 225 ST,,40.666454,-73.752121,,,0,
500686,,N CONDUIT AV - 222 ST,,40.66647,-73.755066,,,0,
504543,,140 AV - BEDELL ST,,40.672134,-73.761513,,,0,
500694,,140 AV - FARMERS BL,,40.671627,-73.764229,,,0,
503606,,BEDELL ST - FARMERS BL,,40.674114,-73.764229,,,0,
500670,,BEDELL ST - 134 RD,,40.675228,-73.766098,,,0,
500671,,BEDELL ST - 133 AV,,40.676491,-73.768127,,,0,
500672,,BEDELL ST - 130 AV,,40.678219,-73.770912,,,0,
500673,,BEDELL ST - 127 AV,,40.679691,-73.773285,,,0,
500674,,BEDELL ST - BAISLEY BL,,40.68042,-73.774452,,,0,
500675,,BAISLEY BL - 172 ST,,40.681778,-73.771843,,,0,
500676,,BAISLEY BL - MERRILL ST,,40.683147,-73.769897,,,0,
503840,,S CONDUIT AV - FRANCIS LEWIS BL,,40.665222,-73.734718,,,0,
904105,,137 AV - FARMERS BL,,40.673389,-73.764473,,,0,
904039,,137 AV - FARMERS BL,,40.673401,-73.764359,,,0,
504064,,SPRINGFIELD BL - 145 RD,,40.663914,-73.759354,,,0,
904031,,243 ST - HUXLEY ST,,40.658276,-73.741005,,,0,
505057,,92 ST - 59 AV,,40.734581,-73.869438,,,0,
505058,,94 ST - 58 AV,,40.734829,-73.866615,,,0,
502868,,JUNCTION BL - 59 AV,,40.735004,-73.865059,,,0,
502870,,HORACE HARDING EXP - 97 ST,,40.734341,-73.862144,,,0,
502871,,HORACE HARDING EXP - 98 ST,,40.734871,-73.860352,,,0,
502872,,HORACE HARDING EXP - 99 ST,,40.735531,-73.858139,,,0,
502873,,HORACE HARDING EXP - 102 ST,,40.736172,-73.855988,,,0,
502874,,HORACE HARDING EXP - YELLOWSTONE BL,,40.736549,-73.853569,,,0,
505071,,HORACE HARDING EXP - 108 ST,,40.736881,-73.85183,,,0,
502875,,HORACE HARDING EXP - 108 ST,,40.737183,-73.850967,,,0,
502876,,HORACE HARDING EXP - COLLEGE PT BL,,40.742409,-73.837196,,,0,
502877,,HORACE HARDING EXP - 134 ST,,40.742741,-73.831612,,,0,
502878,,HORACE HARDING EXP - 136 ST,,40.742523,-73.829414,,,0,
502879,,HORACE HARDING EXP - 138 ST,,40.742279,-73.827423,,,0,
502880,,HORACE HARDING EXP - MAIN ST,,40.741695,-73.824715,,,0,
502509,,HORACE HARDING EXP - 146 ST,,40.74123,-73.823318,,,0,
502510,,HORACE HARDING EXP - 148 ST,,40.740646,-73.821571,,,0,
502511,,HORACE HARDING EXP - 150 ST,,40.739941,-73.819504,,,0,
502512,,HORACE HARDING EXP - 153 ST,,40.739273,-73.817474,,,0,
502513,,HORACE HARDING EXP - REEVES AV,,40.738735,-73.815903,,,0,
904089,,HORACE HARDING EXP - KISSENA BL,,40.738503,-73.814613,,,0,
502623,,73 AV - 189 ST,,40.733475,-73.781723,,,0,
502624,,73 AV - 192 ST,,40.734043,-73.779999,,,0,
502625,,73 AV - 194 ST,,40.7346,-73.778214,,,0,
502626,,73 AV - 196 ST,,40.735119,-73.776482,,,0,
502627,,73 AV - 197 ST,,40.735645,-73.774734,,,0,
502628,,73 AV - 199 ST,,40.735962,-73.773666,,,0,
502629,,73 AV - FRANCIS LEWIS BL,,40.73634,-73.772346,,,0,
502630,,73 AV - HOLLIS HILLS TERR,,40.737953,-73.767494,,,0,
502631,,73 AV - 210 ST,,40.739208,-73.763145,,,0,
502632,,73 AV - 213 ST,,40.740017,-73.760536,,,0,
502633,,73 AV - BELL BL,,40.74091,-73.757797,,,0,
502634,,73 AV - 220 ST,,40.741791,-73.755051,,,0,
502635,,73 AV - SPRINGFIELD BL,,40.742271,-73.753624,,,0,
502947,,73 AV - SPRINGFIELD BL,,40.742352,-73.753929,,,0,
502648,,73 AV - 218 ST,,40.741329,-73.756905,,,0,
502649,,73 AV - BELL BL,,40.740765,-73.758766,,,0,
502650,,73 AV - 213 ST,,40.739902,-73.761368,,,0,
502651,,73 AV - 210 ST,,40.739136,-73.764076,,,0,
503983,,73 AV - CLEARVIEW EXP,,40.737411,-73.769371,,,0,
502653,,73 AV - FRANCIS LEWIS BL,,40.736404,-73.772697,,,0,
502654,,73 AV - 198 ST,,40.735786,-73.77478,,,0,
502656,,73 AV - 195 ST,,40.734901,-73.77774,,,0,
502657,,73 AV - 193 ST,,40.734238,-73.779907,,,0,
502658,,73 AV - 190 ST,,40.733662,-73.781647,,,0,
502974,,HORACE HARDING EXP - KISSENA BL,,40.739388,-73.815559,,,0,
502975,,HORACE HARDING EXP - 150 ST,,40.740726,-73.81971,,,0,
502976,,HORACE HARDING EXP - 148 ST,,40.741447,-73.821877,,,0,
502977,,HORACE HARDING EXP - 146 ST,,40.742073,-73.823723,,,0,
502978,,HORACE HARDING EXP - MAIN ST,,40.742802,-73.825958,,,0,
502979,,HORACE HARDING EXP - 136 ST,,40.743229,-73.830132,,,0,
502980,,HORACE HARDING EXP - LAWRENCE ST,,40.74358,-73.833618,,,0,
502981,,HORACE HARDING EXP - COLLEGE PT BL,,40.743782,-73.835793,,,0,
502982,,HORACE HARDING EXP - WALDRON ST,,40.738216,-73.850433,,,0,
502983,,HORACE HARDING EXP - 108 ST,,40.73761,-73.852524,,,0,
502984,,HORACE HARDING EXP - WESTSIDE AV,,40.737305,-73.854057,,,0,
502985,,HORACE HARDING EXP - OTIS AV,,40.736671,-73.856613,,,0,
502986,,HORACE HARDING EXP - 99 ST,,40.735775,-73.859749,,,0,
502987,,HORACE HARDING EXP - 99 ST,,40.735146,-73.861862,,,0,
504987,,HORACE HARDING EXP - JUNCTION BL,,40.734364,-73.86451,,,0,
504988,,59 AV - 94 ST,,40.734962,-73.866814,,,0,
804060,,92 ST - 59 AV,,40.734707,-73.869484,,,0,
504039,,174 ST - 64 AV BAY 1,,40.737904,-73.794838,,,0,
804006,,H. HARDING EXPY - F.LEWIS BLVD,,40.743828,-73.776405,,,0,
804008,,MAIN ST - REEVES AV,,40.73962,-73.824692,,,0,
